bstoparsno,bstopid,name,stoptype,lng,lat
1001,167970102,"영주삼거리","일반",129.033261700000000,35.115323330000002
1002,169310303,"영주삼거리","일반",129.033030300000010,35.115282639999997
1003,167970301,"시민아파트","일반",129.031678300000010,35.115074999999997
1004,167840102,"시민아파트","일반",129.032159900000010,35.114921359999997
1005,167970302,"중앙공원 민주공원입구","일반",129.029858300000000,35.114473330000003
1006,167840101,"중앙공원 민주공원입구","일반",129.030088699999990,35.114344170000003
1007,167840201,"중앙공원 민주공원입구","일반",129.029651699999990,35.113970000000002
1008,167970201,"동아아파트","일반",129.030426699999990,35.113966670000003
1009,168020203,"동아아파트","일반",129.030288300000000,35.113201089999997
1010,167660301,"부산터널위","일반",129.031769000000000,35.113067999999998
1011,167840202,"동주파크맨션","일반",129.029670000000010,35.111441669999998
1012,167830103,"동주파크맨션","일반",129.029844999999990,35.111336670000000
1013,168020202,"금호아파트","일반",129.030720000000000,35.111496670000001
1014,167970202,"금호아파트","일반",129.030686699999990,35.111094999999999
1015,167840203,"청운아파트","일반",129.030538299999990,35.109654999999997
1016,167830102,"청운아파트","일반",129.030711700000010,35.109573330000003
1017,168020201,"부산디지털고","일반",129.031799000000010,35.109566000000001
1018,167970203,"부산디지털고","일반",129.031981699999990,35.109475000000003
1019,167840204,"부산디지털고","일반",129.030291699999990,35.107786670000003
1020,167830101,"부산디지털고","일반",129.030988299999990,35.108071670000001
1021,168020102,"중구청.메리놀병원","일반",129.032933300000000,35.107534469999997
1022,167910201,"중구청.메리놀병원","일반",129.033933300000000,35.107728330000000
1023,167910101,"중구청.메리놀병원","일반",129.033720200000000,35.108088719999998
1024,167910102,"거북맨션","일반",129.033933899999990,35.109796230000001
1025,168020101,"거북맨션","일반",129.033714000000000,35.109738630000003
1026,167910202,"코모도호텔","일반",129.034878300000000,35.110188330000000
1027,167670201,"영주신호대","일반",129.034431700000000,35.111244999999997
1028,167680201,"영주동","일반",129.035004300000000,35.112254909999997
1029,167680101,"영주동","일반",129.035453300000000,35.112065000000001
1030,167700302,"영주동","일반",129.037222200000000,35.109993979999999
1032,167860102,"영주동","일반",129.037495900000010,35.109652879999999
1033,167700303,"영주동","일반",129.036897100000000,35.109200309999999
1034,167860101,"영주동","일반",129.036973899999990,35.108424030000002
1036,167930101,"2부두","일반",129.040653300000000,35.108561670000000
1037,169270201,"2부두","일반",129.040120000000000,35.108280000000001
1038,167700304,"영주동","일반",129.036610000000000,35.108126669999997
1039,167700305,"중부경찰서","일반",129.036378300000000,35.107683330000000
1041,168010301,"중앙동(중앙역)","일반",129.036340800000000,35.106674900000002
1042,167860202,"중앙동(중앙역)","일반",129.036024700000010,35.105432819999997
1043,167860201,"중앙동","일반",129.036193300000010,35.105543330000003
1044,169270202,"연안여객터미널","일반",129.039154999999990,35.106076670000000
1045,167930102,"연안여객터미널","일반",129.038271700000000,35.105083329999999
1046,167930201,"부산세관","일반",129.037440000000000,35.104016670000000
1047,167710301,"제일은행앞","일반",129.034833300000000,35.102951670000003
1048,167950102,"백산기념관.영화체험박물관","일반",129.034246900000000,35.102682569999999
1049,211840303,"중앙역2번출구","일반",129.036560000000010,35.101851670000002
1050,211840302,"CJ대한통운","일반",129.036720600000000,35.101447430000000
1051,211840301,"CJ대한통운","일반",129.036746999999990,35.100969550000002
1052,167730101,"부산항만공사","일반",129.037685000000010,35.100769999999997
1053,211850401,"부산항만공사","일반",129.037920000000010,35.100841670000001
1054,211840304,"연안여객부두","일반",129.036648300000000,35.100470000000001
1055,167720201,"중앙동주민센터","일반",129.036337500000000,35.100950220000001
1056,167720202,"부산데파트","일반",129.036585000000000,35.100588330000001
1057,167870101,"수산물품질관리부산지원","일반",129.036701700000010,35.099943330000002
1058,208830101,"중앙공원 민주공원","일반",129.028602000000010,35.112735999999998
1059,211840201,"부산데파트","일반",129.036374099999990,35.099985609999997
1061,167960201,"영도대교(남포역)","일반",129.036016300000000,35.097318309999999
1062,167960202,"영도대교(남포역)","일반",129.035894100000010,35.097618220000001
1063,167850201,"영도대교(남포역)","일반",129.035743300000010,35.097484999999999
1064,167850202,"영도대교","일반",129.035885000000010,35.097058330000003
1067,167990301,"남포역","일반",129.032983300000010,35.097893329999998
1068,168000105,"자갈치시장","일반",129.032434999999990,35.097535000000001
1069,168000104,"자갈치시장","일반",129.032250800000010,35.097464379999998
1070,167990302,"남포동","일반",129.032346700000010,35.097969999999997
1071,167990303,"남포동","일반",129.031825500000000,35.098177909999997
1072,167990304,"남포동","일반",129.031241700000010,35.098318640000002
1073,167990305,"남포동","일반",129.030100000000000,35.098140000000001
1074,167990306,"자갈치역.비프광장","일반",129.028956700000010,35.097898330000000
1075,167820102,"남포동","일반",129.031821299999990,35.097841860000003
1076,168000102,"신동아시장","일반",129.029300600000000,35.097133810000003
1077,168000103,"자갈치시장","일반",129.030461699999990,35.097388330000001
1078,168000101,"신동아시장","일반",129.028931199999990,35.097075949999997
1079,167820301,"자갈치역","일반",129.026988300000000,35.097551000000003
1080,167810401,"서구청(충무동)","일반",129.025567800000000,35.098028419999999
1082,167820101,"자갈치입구(자갈치역)","일반",129.028695000000000,35.097753330000003
1083,167920101,"부평시장","일반",129.025168299999990,35.101258330000000
1084,167770201,"부평시장","일반",129.025158400000010,35.102136780000002
1085,167920501,"남포주유소","일반",129.022511200000000,35.101505609999997
1088,167890101,"보수초등학교","일반",129.023865500000000,35.105629870000001
1089,210000301,"보수초등학교","일반",129.024159999999990,35.105441669999998
1090,167770301,"보수사거리","일반",129.024368299999990,35.103248330000000
1091,209980201,"보수사거리","일반",129.024499999999990,35.103130000000000
1092,167790201,"국제시장","일반",129.028608899999990,35.102844449999999
1093,167790202,"국제시장","일반",129.028952100000000,35.102835949999999
1095,167790203,"국제시장","일반",129.029888599999990,35.102793230000003
1096,167790204,"국제시장.부산근대역사관","일반",129.030567999999990,35.102772840000000
1097,167950301,"국제시장","일반",129.030181700000010,35.102943330000002
1098,167950302,"국제시장","일반",129.030380000000010,35.102950000000000
1100,167950303,"국제시장","일반",129.029616100000000,35.103081660000001
1101,167790101,"새들맨션","일반",129.030943299999990,35.105016669999998
1102,167910301,"새들맨션","일반",129.030501700000000,35.104873329999997
1103,168250101,"중구종합사회복지관","일반",129.028629999999990,35.105770000000000
1104,167830201,"중구종합사회복지관","일반",129.027282200000000,35.105972960000003
1105,168410206,"보수아파트","일반",129.026156700000000,35.107386669999997
1106,168250301,"보수아파트","일반",129.026160000000000,35.107750000000003
1107,168410205,"혜광고교","일반",129.024225000000000,35.108923330000003
1110,167670202,"코모도호텔","일반",129.034930000000000,35.110033330000000
1111,167780101,"보수동책방골목","일반",129.026448300000000,35.103056670000001
1112,167790401,"보수동책방골목","일반",129.026863999999990,35.103104000000002
1113,167670203,"코모도호텔입구","일반",129.034314700000010,35.108091129999998
1115,504640000,"중앙공원.민주공원입구","일반",129.029689800000000,35.113567830000001
2002,168570301,"구덕초등학교","일반",129.012931299999990,35.119585100000002
2003,168580101,"구덕초등학교","일반",129.012773000000010,35.119489000000002
2004,168780301,"서부교육청","일반",129.011973299999990,35.118168330000003
2005,208930101,"서부교육청","일반",129.012291699999990,35.117363330000003
2006,168470401,"동아대병원입구","일반",129.016711300000000,35.117447300000002
2007,168570101,"구덕운동장","일반",129.016768300000000,35.116558329999997
2009,168950301,"동대신3동","일반",129.018293300000010,35.117220000000003
2010,168470101,"동대신3동","일반",129.018480000000010,35.117519999999999
2011,168410202,"동대고개","일반",129.021754300000000,35.116056839999999
2012,168250306,"동대고개","일반",129.022340000000010,35.115876669999999
2013,168410203,"대신여중","일반",129.025778300000010,35.113300000000002
2014,168250304,"대신여중","일반",129.026080000000010,35.113005000000001
2015,168410204,"락서암","일반",129.024613300000000,35.110356670000002
2016,168250303,"락서암","일반",129.024800000000000,35.110770000000002
2017,168250302,"혜광고교","일반",129.024399700000000,35.108989340000001
2018,167900101,"화랑초등학교","일반",129.022717800000010,35.109833049999999
2019,168670201,"화랑초등학교","일반",129.022365000000010,35.109983329999999
2020,168370101,"동대시장","일반",129.019941100000010,35.110655020000003
2022,168670301,"동대시장(동대신역)","일반",129.018450100000000,35.110410039999998
2023,168670101,"부산터널입구","일반",129.022844800000000,35.111663960000001
2024,168820301,"서여고","일반",129.021283299999990,35.112628330000000
2025,168470203,"서여고","일반",129.020136699999990,35.114013329999999
2026,168470202,"동신초등학교입구","일반",129.019261699999990,35.114538330000002
2027,168470201,"동신초등학교","일반",129.018170000000000,35.115130000000001
2028,168310301,"동신초등학교","일반",129.019181699999990,35.114843329999999
2029,168310302,"동신초등학교","일반",129.018350300000010,35.115287619999997
2030,168330101,"문화아파트","일반",129.016648300000010,35.115445840000000
2031,168340201,"부경고교","일반",129.014011700000000,35.114255000000000
2032,168340202,"구덕운동장","일반",129.013923299999990,35.113863330000001
2033,168340203,"부경고교","일반",129.013611700000010,35.113281669999999
2034,168620401,"삼육부산병원","일반",129.011595000000000,35.112665000000000
2035,168610101,"삼육부산병원(서대신역)","일반",129.011911700000010,35.111596669999997
2036,168620302,"서대신교차로(서대신역)","일반",129.011120100000000,35.110576889999997
2037,168620301,"서대신교차로","일반",129.011218300000000,35.110574999999997
2038,168760101,"광민약국(서대신동)","일반",129.009816699999990,35.111068330000002
2039,168610201,"광민약국(서대신동)","일반",129.009755000000010,35.110998330000001
2040,168620201,"서대신역.서부경찰서","일반",129.013160000000000,35.110430000000001
2041,168620101,"서대신역.서대신교차로","일반",129.013231700000010,35.112256690000002
2042,168620102,"부경고교","일반",129.013820000000010,35.113509999999998
2043,168320303,"구덕운동장(종점)","일반",129.015763300000000,35.113889999999998
2044,168320302,"구덕운동장","일반",129.016050000000010,35.113351670000000
2045,168320301,"서대신우체국","일반",129.016491400000010,35.112902530000000
2046,168320201,"동대신역","일반",129.017151799999990,35.111077649999999
2048,168370301,"서대시장(동대신역)","일반",129.016797300000010,35.109864799999997
2049,168290301,"서대시장","일반",129.015920499999990,35.109541900000004
2050,168280101,"서대시장","일반",129.016171700000000,35.109450000000002
2051,168290101,"서대시장(동대신역)","일반",129.017396700000010,35.109791510000001
2052,168370201,"서부교회","일반",129.018300000000010,35.109186670000000
2053,168350401,"서부교회","일반",129.019240000000000,35.108676670000001
2054,168370202,"서부교회","일반",129.019621500000000,35.107968270000001
2055,168460304,"대진아파트","일반",129.024483300000010,35.087276670000001
2056,168350201,"동아대부민캠퍼스","일반",129.020091699999990,35.106025000000002
2057,168950101,"동아대학교병원","일반",129.016650199999990,35.119427719999997
2058,168360101,"동아대부민캠퍼스","일반",129.020309000000000,35.106166999999999
2059,168390101,"동아대부민캠퍼스","일반",129.020238699999990,35.104979640000003
2060,211000103,"대진아파트","일반",129.024578300000000,35.087356669999998
2061,168530401,"영락교회","일반",129.020610000000000,35.103383330000000
2062,168390201,"영락교회","일반",129.020771900000000,35.103172440000002
2063,168380102,"부산대학병원","일반",129.019880000000000,35.101806670000002
2064,168380101,"부산대학병원(토성역)","일반",129.019925000000000,35.101343329999999
2065,168390301,"부산대학병원(토성역)","일반",129.019778300000010,35.101338329999997
2066,168380401,"토성역.아미동입구","일반",129.018014999999990,35.099939999999997
2067,168500101,"토성역.아미동입구","일반",129.018669999999990,35.099800000000002
2068,168500301,"아동보호종합센터","일반",129.015871699999990,35.100016670000002
2069,168500302,"양성슈퍼","일반",129.013356700000000,35.100223329999999
2070,168600301,"까치새길입구","일반",129.011529999999990,35.101379999999999
2071,168600302,"아름다운교회","일반",129.010961700000000,35.103090000000002
2072,208270201,"아름다운교회","일반",129.010834999999990,35.102813329999996
2073,208270202,"까치새길입구","일반",129.011451700000010,35.101393330000001
2074,168600101,"양성슈퍼","일반",129.013511700000010,35.100098330000002
2075,168600102,"아동보호종합센터","일반",129.016053300000010,35.100028330000001
2076,168500201,"아미치안센터","일반",129.016077499999990,35.099435020000001
2077,168490301,"아미치안센터","일반",129.016805000000010,35.100006999999998
2078,168490101,"아미초등학교","일반",129.017204999999990,35.097743330000000
2079,168480201,"아미초등학교","일반",129.017221699999990,35.097799999999999
2080,168380301,"토성동","일반",129.020528300000000,35.098050000000001
2081,168400402,"부산대학병원(토성역)","일반",129.020131200000010,35.098960159999997
2082,168400401,"토성동","일반",129.020829999999990,35.097933329999996
2084,208920102,"암남공원","일반",129.019225000000010,35.063118330000002
2085,167920303,"서구청","일반",129.025152200000010,35.097647889999998
2087,168460201,"충무동 해안시장","일반",129.025246399999990,35.096157359999999
2088,168460202,"충무동 해안시장","일반",129.025894999999990,35.096318330000003
2089,211000106,"자갈치역,충무동해안시장","일반",129.024512800000000,35.095774249999998
2090,168460303,"충무동교차로","일반",129.024266700000000,35.095626670000001
2091,168460401,"자갈치역.충무동교차로","일반",129.023802600000010,35.096626839999999
2092,168460402,"충무동교차로","일반",129.023101700000010,35.096663329999998
2093,168400101,"충무동교차로","일반",129.023415000000000,35.096461669999997
2094,168750302,"하동상회","일반",129.018238300000010,35.096238329999998
2095,168480102,"하동상회","일반",129.018251700000010,35.096015000000001
2096,168750301,"초장중학교","일반",129.019086700000000,35.094504999999998
2097,168480101,"초장중학교","일반",129.019000000000010,35.094378329999998
2098,168480103,"초장동","일반",129.018436000000010,35.092856710000000
2099,168640305,"초장동","일반",129.018750000000010,35.092550000000003
2100,168750201,"대원사","일반",129.020005000000000,35.091555000000000
2101,168640304,"대원사","일반",129.019961700000010,35.091636670000000
2102,168400201,"남부민시장입구","일반",129.022126899999990,35.092653869999999
2103,168720201,"남부민시장입구","일반",129.022078700000010,35.093138199999999
2104,168460301,"충무쇼핑 충무동새벽시장","일반",129.023895000000010,35.092815000000002
2105,211000105,"충무쇼핑 충무동새벽시장","일반",129.024026700000010,35.092801670000000
2106,211000104,"공동어시장","일반",129.024374999999990,35.089664999999997
2107,168460302,"공동어시장","일반",129.024305000000000,35.088978330000003
2108,168540303,"남부민초등학교","일반",129.023406700000010,35.087828330000001
2109,168730201,"남부민초등학교","일반",129.023298299999990,35.088241670000002
2110,168640303,"동천아파트","일반",129.021684999999990,35.090056670000003
2111,168750202,"동천아파트","일반",129.021544000000010,35.090546750000001
2112,168750203,"남부민동경로당","일반",129.021790000000010,35.087670000000003
2113,168640302,"남부민동경로당","일반",129.021815000000000,35.087434999999999
2114,168730202,"천마우편취급국","일반",129.022513300000010,35.085848329999997
2115,168540302,"천마우편취급국","일반",129.022099999999990,35.085158329999999
2116,168460305,"등대시장","일반",129.024779999999990,35.084713330000000
2117,211000102,"등대시장","일반",129.024988400000010,35.084320329999997
2118,211000101,"대림아파트","일반",129.025148300000010,35.082445000000000
2119,168460306,"대림아파트","일반",129.024888299999990,35.082295000000002
2120,168450102,"부산관광고교","일반",129.022001700000000,35.082118330000000
2121,168540301,"남부민2동주민센터","일반",129.020285000000000,35.083804999999998
2122,168730203,"남부민2동주민센터","일반",129.020340000000000,35.083632999999999
2123,168540102,"부산관광고교","일반",129.021896700000010,35.082403329999998
2124,168540101,"신익아파트","일반",129.020389999999990,35.079988329999999
2125,168450101,"신익아파트","일반",129.020278300000000,35.079405000000001
2126,211000201,"암남동주민센터","일반",129.021318699999990,35.079862009999999
2127,168450201,"암남동주민센터","일반",129.021731700000000,35.079766669999998
2128,168560101,"송도교차로","일반",129.018363300000000,35.078368330000004
2129,168560301,"송도입구","일반",129.018046700000010,35.079464999999999
2130,168420301,"고신대학교복음병원","일반",129.016151100000000,35.081470459999998
2131,168430201,"알로이시오기념병원","일반",129.012820000000000,35.082118330000000
2132,168440201,"알로이시오기념병원","일반",129.012878300000010,35.081870000000002
2133,168430101,"고신대학교복음병원","일반",129.015923300000000,35.081253330000003
2134,168420101,"송도입구","일반",129.017460599999990,35.079779700000003
2135,209910206,"송도교차로","일반",129.018118800000000,35.078401130000003
2136,168560201,"송도초등학교","일반",129.016815000000010,35.078838330000004
2137,209910204,"송도초등학교","일반",129.016433299999990,35.078416670000003
2138,209910203,"송도해수욕장","일반",129.016133300000010,35.076374999999999
2139,168560202,"송도해수욕장","일반",129.015881900000010,35.076735690000000
2140,168560203,"송도공영주차장","일반",129.015295000000010,35.074224999999998
2141,209910202,"송도공영주차장","일반",129.015411699999990,35.073966669999997
2142,208920202,"혜성아파트","일반",129.016138299999990,35.071498329999997
2143,209910101,"혜성아파트","일반",129.016246700000010,35.071178330000002
2144,208920101,"휴게소","일반",129.019296700000010,35.066078330000003
2145,168550301,"휴게소","일반",129.019788299999990,35.065831670000001
2146,168550302,"암남공원","일반",129.019281699999990,35.063536669999998
2147,168550201,"모지포마을입구","일반",129.016333300000010,35.062791670000003
2148,168550202,"모지포마을","일반",129.014585000000010,35.063771670000001
2149,168780102,"경성전자고등학교","일반",129.013549799999990,35.116055740000000
2150,208930102,"경성전자고등학교","일반",129.012820000000000,35.116408329999999
2151,168510101,"동원냉장","일반",129.012798000000000,35.065604999999998
2152,168510301,"감천1.2.3부두","일반",129.009468300000010,35.068328330000000
2153,168520301,"동원냉장","일반",129.012983300000000,35.065648330000002
2154,168760201,"민들레맨션","일반",129.009203300000000,35.108648330000001
2155,168680101,"민들레맨션","일반",129.009391700000010,35.109126670000002
2156,210980301,"인성글로벌냉장","일반",129.006734999999990,35.072704999999999
2157,208850203,"인성글로벌냉장","일반",129.006636700000000,35.072563330000001
2158,208850201,"한일냉장","일반",129.005388299999990,35.080539999999999
2159,210980303,"한일냉장","일반",129.005564999999990,35.080028329999998
2160,168780302,"서대신금호아파트(종점)","일반",129.011161700000000,35.119323330000000
2161,209910201,"송도혜성아파트(종점)","일반",129.015954999999990,35.072274999999998
2162,168250305,"동대신2동","일반",129.023826700000000,35.115243329999998
2163,168410201,"동대신2동","일반",129.024093300000000,35.114923330000003
2166,208850202,"동양레미콘","일반",129.006001700000010,35.075786669999999
2167,210990101,"감천1.2.3부두","일반",129.009448300000000,35.068204999999999
2168,210980302,"동양레미콘","일반",129.006073300000000,35.076186669999998
2169,168780101,"대신중학교","일반",129.013749999999990,35.117024999999998
2170,168570501,"경남고등학교","일반",129.017991700000010,35.119136670000003
2171,208920201,"현대아파트","일반",129.017532300000000,35.070902210000000
2172,209910102,"현대아파트","일반",129.016821700000010,35.070856669999998
2173,168750204,"해강노인관","일반",129.020218300000010,35.085041670000003
2174,168640301,"해강노인관","일반",129.020058299999990,35.084829999999997
2175,168520101,"모지포마을","일반",129.014524999999990,35.063726670000001
2177,168520201,"성진수산","일반",129.012010100000000,35.062186519999997
2178,168850101,"성진수산","일반",129.012130500000010,35.061937890000003
2179,168850201,"부산국제수산물도매시장","일반",129.011436000000000,35.059938000000002
2180,168350101,"동아대부민캠퍼스","일반",129.020921100000010,35.107487329999998
2181,167900401,"동아대부민캠퍼스","일반",129.021773700000010,35.107637599999997
2182,212650201,"수산가공선진화단지입구","일반",129.012283200000010,35.057052239999997
2183,215980101,"수산가공선진화단지입구","일반",129.012605600000000,35.057015350000000
2184,215970101,"수산가공선진화단지","일반",129.011955400000010,35.054637980000003
2185,212650101,"부산국제수산물도매시장","일반",129.011483000000000,35.059854999999999
2186,168750205,"남부민동","일반",129.017992700000010,35.083269479999998
2187,168630201,"동산교회","일반",129.015769400000010,35.084390270000000
2188,168870201,"알로이시오고교","일반",129.012298700000000,35.082348150000001
2189,168540201,"남부민동","일반",129.018426600000000,35.083028910000003
2190,168280301,"서대신역.서부경찰서","일반",129.014359899999990,35.109982389999999
2191,210740201,"천마마을","일반",129.014432199999990,35.084511630000002
2194,504570000,"문화아파트","일반",129.016121599999990,35.115276790000003
2195,168600303,"까치고개","일반",129.011425000000000,35.104581670000002
3001,170050202,"범곡교차로","일반",129.056293700000000,35.140086719999999
3002,170050201,"범곡교차로","일반",129.056414999999990,35.140638330000002
3003,169300101,"부산범천교회","일반",129.054860400000000,35.141841180000000
3004,169210102,"아름빌아파트","일반",129.052248700000010,35.141521519999998
3005,169300301,"아름빌아파트","일반",129.052223300000010,35.141673330000003
3006,169210101,"서광교회","일반",129.051140000000000,35.139964999999997
3007,169300302,"서광교회","일반",129.051158300000000,35.140543330000000
3008,169410301,"범일초등학교","일반",129.049006700000010,35.140698329999999
3009,169410302,"삼화약국","일반",129.048793300000000,35.143373330000003
3010,169420201,"삼화약국","일반",129.048591700000000,35.143523330000001
3011,169420202,"범일초등학교","일반",129.048884600000010,35.140602540000003
3012,169410201,"범일초등학교","일반",129.048868500000000,35.140246050000002
3013,210060102,"범일초등학교","일반",129.048852200000000,35.139908869999999
3014,210060101,"성북고개","일반",129.048160000000000,35.138795000000002
3015,170050101,"범곡교차로","일반",129.056746000000000,35.142059000000003
3016,169410203,"성북고개","일반",129.047798300000010,35.138223330000002
3017,210060201,"좌천동농심가슈퍼","일반",129.047000400000000,35.136724680000000
3018,210050101,"좌천동농심가슈퍼","일반",129.047296700000000,35.136843329999998
3019,169230301,"수정삼거리","일반",129.045680000000000,35.135348329999999
3020,169250201,"수정삼거리","일반",129.045629999999990,35.135266600000001
3021,169200102,"수정삼거리","일반",129.045123300000000,35.135365000000000
3022,169250301,"수정삼거리","일반",129.044517300000000,35.135246649999999
3023,169230201,"수정5동","일반",129.044678299999990,35.134021670000003
3024,169190301,"수정5동","일반",129.045105900000010,35.133917599999997
3025,169230202,"수정성당입구","일반",129.046114999999990,35.132328330000000
3027,169440301,"수정초등학교","일반",129.046995000000010,35.131366669999998
3028,169200101,"수성초등학교","일반",129.042705000000010,35.133911670000003
3029,169250302,"수성초등학교","일반",129.042519099999990,35.133874519999999
3030,169200301,"동여중","일반",129.042245000000010,35.132321670000003
3031,169630301,"동여중","일반",129.041951700000000,35.131844999999998
3032,169500301,"수정2동","일반",129.040609999999990,35.130301670000001
3033,169630201,"수정2동","일반",129.041210000000010,35.129553330000000
3034,169500101,"수정아파트","일반",129.040875000000000,35.127189999999999
3035,208120102,"수정아파트","일반",129.041056200000010,35.127262840000000
3036,169500102,"묘심사","일반",129.039430000000010,35.126513330000002
3037,169180201,"부산서중학교","일반",129.035755499999990,35.125936560000000
3038,169180301,"부산서중학교","일반",129.034879800000000,35.126159309999998
3039,169170101,"부산서중학교","일반",129.035342000000010,35.125990719999997
3040,169310103,"초량6동","일반",129.034846700000000,35.124209999999998
3041,169170301,"초량6동","일반",129.034638400000010,35.124246739999997
3042,169310102,"부산컴퓨터과학고교","일반",129.033873300000010,35.122238330000002
3043,169170302,"부산컴퓨터과학고교","일반",129.033535000000000,35.122025000000001
3044,169310101,"금수사","일반",129.030766699999990,35.119831670000003
3045,169170303,"금수사","일반",129.030070300000010,35.119633200000003
3046,169450502,"초량6동주민센터","일반",129.033736699999990,35.120136670000001
3047,169310202,"초량6동주민센터","일반",129.034570000000000,35.120154999999997
3048,169310203,"(구)해룡약국","일반",129.036121700000000,35.119644999999998
3049,169310301,"화신아파트","일반",129.030088299999990,35.118518330000001
3050,167970103,"화신아파트","일반",129.030636700000000,35.118450000000003
3051,169310302,"동일파크맨션","일반",129.033616400000000,35.116875120000003
3052,167970101,"동일파크맨션","일반",129.033728700000010,35.117059840000003
3054,169100205,"부산역","일반",129.039463600000000,35.115234809999997
3058,169100203,"부산역","일반",129.039887300000000,35.116046679999997
3060,169080101,"부산역","일반",129.040147300000000,35.115701739999999
3061,169330202,"부산역후문","일반",129.043041700000000,35.114311669999999
3062,169270101,"부산역후문","일반",129.043485000000000,35.114246600000001
3063,169080102,"부산역","일반",129.040255800000010,35.115664420000002
3064,169100201,"부산역","일반",129.040208799999990,35.116590670000001
3065,169100301,"국민은행","일반",129.039643299999990,35.117179999999998
3066,169450401,"초량지구대","일반",129.037728600000010,35.117926220000001
3067,169460102,"초량지구대","일반",129.037978299999990,35.118096670000000
3068,169450503,"부산고교","일반",129.038197999999990,35.120502999999999
3069,169310204,"부산고교","일반",129.038364800000010,35.120286669999999
3070,169060301,"부산고교","일반",129.039068700000000,35.120528569999998
3071,169130401,"초량시장","일반",129.039170100000010,35.120144080000003
3072,169460101,"부산고교","일반",129.038821899999990,35.119506299999998
3073,169140301,"초량시장입구","일반",129.040797700000010,35.118646269999999
3074,169130201,"초량시장입구","일반",129.040577600000010,35.118492519999997
3077,169140101,"초량시장","일반",129.041480000000010,35.118201669999998
3078,169330201,"부산역후문","일반",129.045213300000000,35.117404999999998
3079,169270102,"부산역후문","일반",129.045604999999990,35.117228330000003
3080,169120201,"초량","일반",129.041356699999990,35.119496669999997
3081,169050202,"초량역","일반",129.041644999999990,35.119875000000000
3082,169030401,"초량역","일반",129.041653000000000,35.119833999999997
3083,169450101,"(구)성분도병원","일반",129.040328300000000,35.122598330000002
3084,169040302,"(구)성분도병원","일반",129.040410000000010,35.122909999999997
3085,169040301,"경남여중","일반",129.042385000000000,35.124113330000000
3086,169040201,"인창병원","일반",129.042931700000000,35.122683330000001
3087,169050101,"인창병원","일반",129.043103500000000,35.122797060000003
3089,168990302,"초량역","일반",129.043679999999990,35.122605000000000
3090,168990301,"초량역","일반",129.043755000000000,35.122788329999999
3091,169020102,"초량역","일반",129.044113299999990,35.122772259999998
3092,169020101,"초량역","일반",129.043866500000010,35.122321849999999
3093,169340201,"4부두","일반",129.047539500000000,35.119299660000003
3094,169320101,"4부두","일반",129.047291800000010,35.119755730000001
3095,168990101,"YMCA","일반",129.045440000000010,35.125338329999998
3096,168990102,"YMCA","일반",129.045805599999990,35.125397169999999
3097,169160301,"YMCA","일반",129.045161699999990,35.125264999999999
3098,169610201,"고관입구","일반",129.045881700000000,35.126633329999997
3099,169610202,"고관입구","일반",129.045373299999990,35.126348329999999
3100,169610203,"고관입구","일반",129.045012500000010,35.126289290000003
3101,169490101,"동구청","일반",129.045054999999990,35.126843330000000
3102,169620301,"동구청","일반",129.044828300000010,35.126812280000003
3103,169440201,"수정시장","일반",129.046339999999990,35.128619999999998
3104,169620101,"수정시장","일반",129.046826700000000,35.129103330000000
3105,169190101,"수정초등학교","일반",129.046895000000010,35.130736669999997
3107,169390301,"봉생병원","일반",129.050520000000010,35.130530000000000
3108,169150201,"부산진역","일반",129.048733300000010,35.128799999999998
3110,169150202,"부산진역","일반",129.048620000000000,35.128610000000002
3111,169150203,"부산진역","일반",129.048045000000000,35.128128330000003
3113,169350101,"부두119안전센터","일반",129.051398299999990,35.125673579999997
3114,169360301,"부두119안전센터","일반",129.050723000000000,35.125776999999999
3115,169670401,"남해지방해양경찰청","일반",129.054849999999990,35.127555000000001
3116,170030202,"남해지방해양경찰청","일반",129.054561699999990,35.127518330000001
3120,169160102,"부산진역","일반",129.048938300000000,35.128686670000000
3121,169150102,"부산진역","일반",129.050146700000000,35.129874999999998
3122,169150103,"부산진역","일반",129.050338299999990,35.130074999999998
3123,169150104,"좌천동","일반",129.052535000000010,35.132179999999998
3124,170030201,"범일5동주민센터","일반",129.054229999999990,35.130423329999999
3125,170030101,"범일5동주민센터","일반",129.054623300000000,35.130913329999998
3126,170000201,"대양산업","일반",129.057333300000010,35.131326670000000
3127,170030102,"대양산업","일반",129.058905000000010,35.131354999999999
3128,169940101,"보급창","일반",129.059665000000000,35.132114999999999
3129,169920201,"자성대","일반",129.060769999999990,35.134586669999997
3130,169920101,"자성대","일반",129.062876700000000,35.135911669999999
3131,169930201,"부산진시장","일반",129.059636799999990,35.136235759999998
3132,169930202,"부산진시장","일반",129.059530000000000,35.136506670000003
3133,169890301,"부산진시장","일반",129.059202400000000,35.136517990000002
3134,169890302,"부산진시장","일반",129.059216800000000,35.136306460000000
3136,169950302,"좌천동가구거리(좌천역)","일반",129.055236699999990,35.135269999999998
3137,169950301,"좌천동가구거리","일반",129.055773300000000,35.135821669999999
3138,169390101,"좌천동가구거리(좌천역)","일반",129.055523200000010,35.135147689999997
3139,169990201,"범일역","일반",129.059173700000000,35.139363520000003
3140,169970101,"범일역.범일동부산은행","일반",129.059446700000000,35.138493330000003
3141,169970201,"국제호텔","일반",129.061278300000000,35.138095000000000
3143,169820301,"자성대","일반",129.062336700000000,35.137290000000000
3144,169770201,"시민회관","일반",129.062543299999990,35.138293330000003
3145,169770301,"시민회관","일반",129.062473200000000,35.138890600000003
3146,169990101,"범일동국민은행","일반",129.060878400000010,35.138925950000001
3147,169990301,"범일역","일반",129.059568200000000,35.139853870000003
3148,169990302,"범일역","일반",129.059572500000000,35.140229269999999
3149,164200201,"자유시장","일반",129.060251499999990,35.140635500000002
3150,169780301,"자유시장","일반",129.060543300000010,35.140914789999997
3151,208120101,"덕림아파트","일반",129.038486100000000,35.126315529999999
3152,169110101,"인창병원","일반",129.042356700000000,35.122068329999998
3153,169450504,"초량어린이집","일반",129.031843600000000,35.119681129999996
3154,169310201,"초량어린이집","일반",129.031849999999990,35.119558329999997
3155,169450501,"(구)해룡약국","일반",129.035626699999990,35.119848330000004
3156,169180302,"부산서중학교","일반",129.034799999999990,35.125860000000003
3157,169530101,"수정4동(종점)","일반",129.038763300000000,35.127416670000002
3158,169860101,"범5호교","일반",129.063021700000010,35.140610000000002
3159,169210202,"범일초등학교입구","일반",129.051478000000000,35.139865000000000
3161,169210201,"나웅하이빌","일반",129.053638000000010,35.138820500000001
3162,169220201,"나웅하이빌","일반",129.053596000000000,35.139022400000002
3163,169220101,"문화아파트","일반",129.053811000000000,35.136491599999999
3164,169240103,"문화아파트","일반",129.053998000000010,35.136414700000003
3165,169220102,"금성고등학교","일반",129.052130000000010,35.134476100000001
3166,169240102,"금성고등학교","일반",129.052360999999990,35.134562299999999
3167,169220103,"좌이경로당","일반",129.049848999999990,35.132999099999999
3168,169240101,"좌이경로당","일반",129.049794999999990,35.132828000000003
3169,169240201,"하승빌라","일반",129.048035000000000,35.134193699999997
3170,169230101,"하승빌라","일반",129.047909000000000,35.134280799999999
3171,169170201,"아르미나아파트","일반",129.035788900000000,35.125520960000003
3172,169470101,"수정1동 공영주차장","일반",129.039024100000010,35.124840239999997
3173,169070201,"(구)성분도병원","일반",129.040083100000000,35.122443300000000
3174,215060201,"부산역","일반",129.040438999999990,35.114504770000003
3175,169950101,"한성기린아파트","일반",129.056577000000000,35.139135670000002
3176,169170202,"부산서중학교","일반",129.037860700000010,35.125470350000001
3177,169220202,"범일초등학교입구","일반",129.051435099999990,35.140031669999999
3178,169470102,"한림유치원","일반",129.039931099999990,35.123932809999999
3179,216730101,"부산항국제여객터미널","일반",129.048722800000010,35.118235939999998
3180,216740101,"부산항국제여객터미널입구","일반",129.048376899999990,35.118440040000003
3181,170000202,"범일5동주민센터","일반",129.055119800000000,35.131245929999999
3182,169200302,"수정산가족체육공원입구","일반",129.040496499999990,35.131756709999998
3183,169070301,"걸스카우트회관","일반",129.039373700000000,35.122912589999999
3184,169070302,"부산고교","일반",129.038762499999990,35.120615880000003
3186,504670000,"눌원빌딩","일반",129.065251600000010,35.136843310000003
3187,505080000,"수정성당입구","일반",129.046217600000010,35.132651490000001
3210,169420101,"안창마을입구","일반",129.048190000000010,35.144399999999997
4001,170170301,"미광마린타워","일반",129.043094999999990,35.093608330000002
4002,170160101,"영도봉래시장","일반",129.043241700000010,35.093328329999999
4003,170350401,"해동병원","일반",129.044141700000010,35.091974999999998
4004,170300101,"해동병원","일반",129.044299000000000,35.091213959999997
4005,170300301,"영선119안전센터","일반",129.043190000000010,35.090163330000003
4006,170290102,"영선119안전센터","일반",129.043375599999990,35.089580660000003
4007,170300402,"영도우체국","일반",129.042014200000010,35.091480660000002
4008,170300401,"영도우체국","일반",129.041526699999990,35.091546670000000
4009,170180201,"영도우체국","일반",129.041098299999990,35.091684999999998
4010,170180401,"대교동","일반",129.038656699999990,35.092621670000000
4011,170400301,"영도경찰서","일반",129.037768300000010,35.092990000000000
4012,171630101,"영도경찰서","일반",129.037256700000000,35.093105000000001
4013,171630102,"영도경찰서","일반",129.037628000000010,35.092899000000003
4014,211060201,"영도전화국","일반",129.037441699999990,35.091290000000001
4015,170270101,"영도전화국","일반",129.037444999999990,35.091098330000001
4016,211500301,"남항동","일반",129.038540000000010,35.090116670000000
4017,211500101,"대교사거리","일반",129.039461899999990,35.091462520000000
4018,170390301,"남항동","일반",129.038299999999990,35.089390000000002
4019,170240201,"남항동","일반",129.038510000000000,35.089161670000003
4020,171050101,"태종대초등학교","일반",129.081115000000010,35.064896670000003
4021,211240301,"남항시장","일반",129.042450000000000,35.088785000000001
4022,170290101,"남항시장","일반",129.042715300000000,35.088308859999998
4024,208940102,"차고지","일반",129.081256000000000,35.063414090000002
4025,170240101,"영선아랫교차로","일반",129.040110000000000,35.086231669999997
4026,170230401,"영선아랫교차로","일반",129.040251700000000,35.086231669999997
4028,170220502,"영선위교차로","일반",129.042441700000010,35.085475000000002
4029,170220401,"영선위교차로","일반",129.042137000000000,35.084775319999999
4030,170220501,"영선위교차로","일반",129.042870499999990,35.085321139999998
4031,170100101,"부산보건고","일반",129.041349999999990,35.083019999999998
4032,210930201,"부산보건고","일반",129.041336699999990,35.082110000000000
4033,170380201,"흰여울문화마을","일반",129.044193799999990,35.079581540000000
4034,211520301,"흰여울문화마을","일반",129.044602900000000,35.079661160000001
4035,170380101,"흰여울문화마을","일반",129.044396799999990,35.080144670000003
4036,211210201,"흰여울문화마을","일반",129.044046000000010,35.080166259999999
4037,211170101,"신선중학교","일반",129.044801699999990,35.081526670000002
4038,211200301,"신선중학교","일반",129.044875800000000,35.082343420000001
4039,170430101,"신선동주민센터","일반",129.045384700000000,35.083369400000002
4040,170440201,"신선동주민센터","일반",129.045303999999990,35.083870890000000
4041,170440101,"남도여중","일반",129.046145000000000,35.086089999999999
4042,211160301,"남도여중","일반",129.046363300000000,35.086578330000002
4043,211830102,"삼거리이용원","일반",129.048953299999990,35.091566669999999
4044,170340301,"외나무약국","일반",129.046955000000000,35.088239999999999
4045,170330101,"외나무약국","일반",129.047243299999990,35.088766669999998
4046,211830101,"영도배수지","일반",129.047969999999990,35.090440000000001
4047,170250301,"영도배수지","일반",129.048190000000010,35.090825000000002
4048,170120201,"덕수탕","일반",129.049520000000000,35.092236669999998
4049,170120101,"덕수탕","일반",129.050091700000000,35.092734999999998
4050,170180301,"대교사거리","일반",129.039220699999990,35.091687649999997
4051,170940303,"영도EM연구센터","일반",129.052764999999990,35.093751670000003
4052,170110102,"영도EM연구센터","일반",129.052930000000000,35.093820000000001
4053,170110103,"영월사","일반",129.054451699999990,35.094011670000000
4054,170940302,"영월사","일반",129.054620000000000,35.094006669999999
4055,170940301,"청학고개","일반",129.056630000000010,35.094050000000003
4056,170350201,"교통순찰대","일반",129.046431700000000,35.093660730000003
4057,170140302,"교통순찰대","일반",129.045396600000000,35.093510119999998
4058,170140301,"교통순찰대","일반",129.045975800000010,35.093754769999997
4059,170310201,"한성맨션","일반",129.050764600000010,35.094993740000000
4060,170320101,"한성맨션","일반",129.050023299999990,35.094548330000002
4061,211390302,"한진중공업","일반",129.053656700000000,35.096038329999999
4063,170310101,"한진중공업","일반",129.053561100000000,35.095644170000000
4064,211390301,"SK부산저유소","일반",129.055611300000010,35.097970480000001
4065,170310102,"신도브래뉴아파트","일반",129.055467599999990,35.097277699999999
4066,210810101,"청학시장","일반",129.059876699999990,35.097209999999997
4067,170980302,"청학동부산은행","일반",129.061536700000000,35.096446669999999
4068,170980301,"청학동부산은행","일반",129.061828300000000,35.096330000000002
4069,170930101,"청학성당","일반",129.063064999999990,35.095743329999998
4070,171000302,"청학주유소","일반",129.064803299999990,35.094033330000002
4071,211150101,"청학주유소","일반",129.065371699999990,35.092984999999999
4072,170990101,"영도구청","일반",129.068254999999990,35.089448330000003
4073,170990201,"영도구청","일반",129.067896499999990,35.089944699999997
4074,209570301,"동삼주공","일반",129.072520000000000,35.086138329999997
4075,170990102,"동삼주공아파트입구","일반",129.071656700000010,35.086888330000001
4076,171200201,"상리종합사회복지회관","일반",129.071038300000000,35.085393330000002
4077,171220101,"상리종합사회복지회관","일반",129.070618300000010,35.085046669999997
4078,171210201,"동삼3동주민센터","일반",129.068738300000010,35.084431670000001
4079,171220201,"동삼3동주민센터","일반",129.068739999999990,35.084521670000001
4080,171480102,"관리사무소","일반",129.067426700000000,35.085169999999998
4081,171480101,"나상가","일반",129.067219999999990,35.086316670000002
4082,171200101,"동삼삼거리","일반",129.072292500000000,35.084657800000002
4083,209580301,"동삼삼거리","일반",129.072516699999990,35.084343330000003
4084,211100201,"일동미라주아파트","일반",129.070799999999990,35.081840000000000
4085,209710402,"일동미라주아파트","일반",129.070776700000010,35.081485000000001
4086,209710401,"동삼주택","일반",129.070373300000000,35.079165000000003
4087,209710201,"동삼주택","일반",129.070383300000000,35.078566670000001
4088,171130201,"동삼동국민은행","일반",129.072144000000010,35.076183000000000
4089,171190201,"동삼동국민은행","일반",129.072613300000000,35.075781669999998
4090,171190301,"삼창파크맨션","일반",129.072578300000000,35.075398329999999
4091,171060302,"에덴금호아파트","일반",129.075435000000000,35.072413330000003
4092,171290101,"에덴금호아파트","일반",129.076343100000000,35.071504390000001
4093,171290102,"해양대입구","일반",129.078170000000000,35.071357999999996
4094,171060301,"해양대입구","일반",129.078720000000000,35.071356999999999
4095,171050102,"하리","일반",129.080428299999990,35.068746670000003
4096,171060201,"하리","일반",129.080833299999990,35.067928750000000
4097,171050201,"태종대초등학교","일반",129.081032200000010,35.065318880000000
4098,171280101,"부산전신전화국","일반",129.072853299999990,35.073103330000002
4099,171190302,"부산전신전화국","일반",129.072641699999990,35.073061670000001
4100,171280401,"동삼동전화국","일반",129.071940000000010,35.073493329999998
4101,171310101,"동삼동전화국","일반",129.071983300000000,35.073356670000003
4102,171310302,"벽산비치타운","일반",129.070920000000000,35.075096670000001
4103,171300101,"벽산비치타운","일반",129.070666700000000,35.075333329999999
4104,171070202,"체육고등학교","일반",129.066329499999990,35.071585880000001
4105,171370302,"쌍용자동차학원","일반",129.059482699999990,35.086374749999997
4106,171310301,"동삼1동행정복지센터","일반",129.068521699999990,35.075498330000002
4107,171140101,"동삼1동행정복지센터","일반",129.067866700000000,35.075471669999999
4108,171140201,"절영아파트","일반",129.065820000000000,35.076239999999999
4109,171230102,"절영아파트","일반",129.065284999999990,35.076568029999997
4110,171150301,"고신대학","일반",129.064515000000000,35.078101670000002
4111,171230101,"고신대학","일반",129.064548300000010,35.077618330000000
4112,170940102,"청학고개","일반",129.057173299999990,35.094143330000001
4113,171010401,"청학시장","일반",129.059416599999990,35.094184599999998
4114,171240202,"청학초등학교","일반",129.059755000000000,35.092581670000001
4115,171070302,"영도여고","일반",129.064686700000010,35.072679999999998
4116,171070201,"영도여고","일반",129.065353300000000,35.072560000000003
4117,170920302,"체육고등학교","일반",129.066913300000010,35.071286669999999
4118,170920301,"해동중학교","일반",129.069115000000010,35.071571669999997
4119,171280301,"조양아파트","일반",129.071254799999990,35.072303269999999
4120,170910101,"조양아파트","일반",129.069915000000010,35.071320000000000
4121,171330202,"남고교","일반",129.067201700000000,35.069730000000000
4122,171330201,"영도중리","일반",129.066949999999990,35.069576669999996
4123,171320201,"남고교","일반",129.066465800000000,35.069621939999998
4124,171080201,"함지그린아파트","일반",129.061408300000010,35.070158329999998
4125,171330301,"함지그린아파트","일반",129.061966700000000,35.070324999999997
4126,171080102,"절영복지회관","일반",129.062280800000000,35.071579929999999
4127,171070301,"절영복지회관","일반",129.062330699999990,35.071806140000000
4128,171070303,"반도보라아파트","일반",129.060846700000010,35.071140000000000
4129,171080101,"반도보라아파트","일반",129.060918300000000,35.071066670000000
4130,171350101,"75광장","일반",129.058269999999990,35.070801670000002
4131,171080302,"75광장","일반",129.058583300000010,35.071046670000001
4132,171080301,"목장원","일반",129.057125000000010,35.071370000000002
4133,171350201,"함지골수련원","일반",129.053876699999990,35.073023329999998
4134,171620102,"함지골수련원","일반",129.053609999999990,35.072868329999999
4135,171620101,"백련사","일반",129.048528299999990,35.075839999999999
4136,171350202,"백련사","일반",129.048235000000010,35.076116669999998
4137,171620201,"영선아파트","일반",129.046310000000010,35.077768329999998
4138,211520201,"영선아파트","일반",129.046006699999990,35.078026670000000
4139,171360202,"고신대3강의동","일반",129.063748299999990,35.080426879999997
4141,170320301,"홈플러스","일반",129.044680000000000,35.095730000000003
4142,211040101,"홈플러스","일반",129.044841700000010,35.095846670000000
4144,171230201,"고신대3강의동","일반",129.063888999999990,35.080317999999998
4145,171360201,"광명고교","일반",129.062704999999990,35.081915000000002
4147,171410201,"일신마리나아파트","일반",129.063109999999990,35.086640000000003
4148,171390101,"롯데낙천대","일반",129.060785900000010,35.088367890000001
4149,171440101,"(구)해사고","일반",129.059703300000000,35.088891670000002
4150,170950301,"영광아파트","일반",129.056909999999990,35.091160000000002
4151,170950302,"시영아파트","일반",129.052628300000010,35.092101669999998
4155,171420201,"롯데낙천대","일반",129.060651500000010,35.088082290000003
4156,170260101,"시영아파트","일반",129.052479600000000,35.091959090000003
4157,171380201,"쌍용자동차학원","일반",129.059402000000010,35.086348999999998
4160,170940101,"청학시장","일반",129.059275000000010,35.094143330000001
4166,171470301,"삼신아파트","일반",129.054340000000000,35.092309999999998
4167,171470201,"청산학원","일반",129.057963599999990,35.090001149999999
4168,171130301,"영도교회","일반",129.073513200000010,35.076908160000002
4169,171120201,"영도교회","일반",129.073350100000000,35.076876439999999
4170,171180101,"동삼초등학교","일반",129.074081900000010,35.079371999999999
4171,211300201,"동삼초등학교","일반",129.073601000000000,35.078577000000003
4172,171170401,"국제크루즈터미널입구","일반",129.076393200000010,35.081436799999999
4173,170970301,"국제크루즈터미널입구","일반",129.076625699999990,35.081838189999999
4174,171170402,"미창석유","일반",129.075845600000010,35.085792020000000
4175,211380102,"미창석유","일반",129.075186699999990,35.085796670000001
4176,170970201,"송강중공업","일반",129.072167100000000,35.088680400000001
4177,211380101,"(주)국보","일반",129.071052799999990,35.089665990000000
4178,211380301,"(주)거청","일반",129.067905999999990,35.094219930000001
4179,211390101,"(주)거청","일반",129.067672200000000,35.093938430000001
4180,211380302,"대선조선","일반",129.063854999999990,35.096235000000000
4181,211390102,"대선조선","일반",129.061487400000000,35.097033719999999
4182,211380303,"청학수변공원","일반",129.060050600000010,35.098079100000000
4183,211390103,"청학수변공원","일반",129.059842000000000,35.097840159999997
4184,211380304,"부산조선","일반",129.058131199999990,35.099485039999998
4185,211390104,"부산조선","일반",129.058040000000010,35.099097469999997
4186,215470104,"국립해양박물관","일반",129.079017800000000,35.078086180000000
4187,210960101,"영선2동주민센터","일반",129.042027100000010,35.087057559999998
4188,170290301,"영선2동주민센터","일반",129.041888000000000,35.087282000000002
4189,171460301,"청산학원","일반",129.058023100000010,35.090116870000003
4190,213300103,"삼신아파트","일반",129.054576400000000,35.092252539999997
4191,215480301,"국제크루즈터미널입구","일반",129.076026000000010,35.081546000000003
4192,171050202,"태종대(태종대온천)","일반",129.080884999999990,35.063681670000001
4193,170960301,"동삼삼거리","일반",129.073807100000010,35.084546699999997
4194,209590101,"동삼삼거리","일반",129.073813699999990,35.084375379999997
4195,211390303,"한진중공업","일반",129.052926300000000,35.095641870000001
4196,171130101,"동삼혁신지구입구.동삼교회","일반",129.074424999999990,35.073838000000002
4197,171130202,"동삼혁신지구입구","일반",129.073675000000010,35.075320980000001
4198,171060401,"한국해양대.부산해사고","일반",129.077419600000010,35.072449740000003
4199,217270101,"한국해양대.부산해사고","일반",129.077405800000010,35.072121050000000
4200,217270202,"한국해양수산연수원","일반",129.075306299999990,35.076433059999999
4201,217280102,"한국해양수산연수원","일반",129.074945399999990,35.076466269999997
4202,217270201,"국립수산물품질관리원","일반",129.075117799999990,35.078946049999999
4203,217280101,"국립수산물품질관리원","일반",129.074776300000000,35.078879800000003
4204,170110104,"청학고개","일반",129.056192299999990,35.093727840000000
5001,164720201,"상수도사업본부","일반",129.074019999999990,35.176636670000001
5002,163990301,"상수도사업본부","일반",129.073068299999990,35.175465000000003
5003,164000103,"상수도사업본부","일반",129.073393299999990,35.175545000000000
5004,164000102,"상수도사업본부","일반",129.073078299999990,35.175023330000002
5005,210470301,"세정고등학교","일반",129.076401000000000,35.174984000000002
5006,172680101,"가야1치안센터","일반",129.036824999999990,35.154621669999997
5007,171900302,"미진마트","일반",129.035564999999990,35.151986669999999
5008,172470401,"청수탕","일반",129.035095000000010,35.169885000000001
5009,164020101,"세정고등학교","일반",129.076546100000000,35.174918249999997
5010,164370201,"부산진등기소(부전역)","일반",129.062146700000000,35.162235000000003
5011,164820301,"양정역6번출구","일반",129.073044500000010,35.173742699999998
5014,164000201,"양정역4번출구","일반",129.072386499999990,35.173241089999998
5015,163990302,"양정역","일반",129.071725700000000,35.173886990000000
5016,164000101,"양정역","일반",129.071923300000010,35.173675000000003
5017,164000501,"백조아파트","일반",129.069830000000000,35.173653330000000
5018,164010201,"백조아파트","일반",129.069101700000000,35.173941669999998
5019,164000401,"양정교차로","일반",129.069438300000000,35.170866670000002
5020,164000402,"양정","일반",129.069438300000000,35.170866670000002
5021,164460101,"양정","일반",129.069957800000000,35.171033399999999
5022,164190201,"양정","일반",129.068884999999990,35.169856670000001
5023,164190101,"양정대원칸타빌","일반",129.067643000000000,35.170664639999998
5025,172180401,"국제백양아파트","일반",129.027704800000010,35.168392439999998
5026,164390201,"양정대원칸타빌","일반",129.067175200000010,35.171446060000001
5027,164010301,"하마정","일반",129.067378300000000,35.174288330000003
5028,164010401,"하마정","일반",129.066154700000000,35.175038669999999
5029,164030101,"양정현대아파트","일반",129.065270199999990,35.174571659999998
5030,164030301,"정묘사","일반",129.061502999999990,35.174480000000003
5031,164040102,"정묘사","일반",129.061709699999990,35.174208180000001
5032,164030302,"화인아파트","일반",129.059190000000000,35.171860000000002
5033,164040101,"화인아파트","일반",129.059415000000000,35.171625429999999
5034,164040201,"부산시민공원","일반",129.056359899999990,35.171119529999999
5035,171720202,"국립부산국악원","일반",129.054895700000000,35.171647260000000
5036,172480301,"성의신용협동조합","일반",129.055030600000010,35.173898979999997
5037,171720201,"성의신용협동조합","일반",129.054901400000010,35.173288489999997
5038,171720302,"부산진고교","일반",129.053679499999990,35.178324930000002
5039,171710201,"부산진고교","일반",129.053886000000010,35.177624410000000
5040,171710301,"초읍초등학교","일반",129.051346800000000,35.180545950000003
5041,209050101,"초읍초등학교","일반",129.050659999999990,35.180677000000003
5042,171690301,"어린이대공원입구","일반",129.047117600000010,35.181136960000003
5043,171660303,"어린이대공원입구","일반",129.047478100000010,35.180628140000003
5044,171690302,"삼광사입구","일반",129.048044299999990,35.177692710000002
5045,171660302,"삼광사입구","일반",129.048346000000010,35.177267739999998
5046,171690303,"성곡시장입구","일반",129.048773100000010,35.175009480000000
5047,171690304,"성곡시장","일반",129.049087899999990,35.173887069999999
5048,171660301,"성곡시장","일반",129.049126400000010,35.174545709999997
5049,171660304,"성곡시장","일반",129.049301000000010,35.173717000000003
5050,172100501,"부산시설공단","일반",129.049928999999990,35.171633579999998
5051,171660101,"LG사이언스홀","일반",129.050122300000000,35.169624110000001
5052,172480201,"연지일동아파트","일반",129.052190000000000,35.169899999999998
5053,172100101,"연지일동아파트","일반",129.052390300000010,35.169606569999999
5054,172500201,"부암고가교","일반",129.049845000000000,35.167729999999999
5055,172100401,"부암고가교","일반",129.049855000000010,35.167903330000001
5056,172500301,"동원APT,협성휴포레","일반",129.048191699999990,35.166423330000001
5057,172370102,"동원아파트","일반",129.048371699999990,35.166381670000000
5058,172500302,"부암새고개","일반",129.045716700000010,35.165966670000003
5059,172370101,"부암새고개","일반",129.045291700000010,35.165948329999999
5060,172690101,"동의대학교입구(동의대역)","일반",129.031235000000010,35.153644999999997
5061,193500303,"시민도서관","일반",129.050615900000000,35.183126039999998
5062,172370301,"당감시장","일반",129.041243799999990,35.166043430000002
5063,172570102,"당감시장","일반",129.041290299999990,35.165775349999997
5064,164620301,"네오스포","일반",129.053985000000010,35.153065580000003
5065,164620302,"부산도시공사","일반",129.051381700000010,35.156161670000003
5066,165240301,"협성피닉스","일반",129.038616700000010,35.170065000000001
5067,171890101,"협성피닉스","일반",129.038748300000010,35.170070000000003
5068,165250301,"부암3동주민센터","일반",129.039562800000000,35.168665140000002
5069,172670301,"가야1치안센터","일반",129.036697000000000,35.154888999999997
5070,171730102,"시민도서관","일반",129.051166200000010,35.183041570000000
5071,171980301,"늘푸른교회","일반",129.036471699999990,35.170086670000003
5074,172140501,"용사촌입구","일반",129.033740300000010,35.171185289999997
5075,171760202,"용사촌입구","일반",129.033544600000000,35.171039020000002
5077,172410301,"백양터널","일반",129.024862000000010,35.171365000000002
5078,172160401,"당감백산아파트","일반",129.032936699999990,35.169238329999999
5079,172690302,"가야전신전화국","일반",129.028771699999990,35.153659930000003
5080,165270202,"당감백산아파트","일반",129.032883000000000,35.169252000000000
5081,172780101,"당감동","일반",129.035959999999990,35.168559999999999
5082,172450301,"(구)당감4동주민센터","일반",129.036835000000000,35.167715000000001
5083,171880201,"화승삼성아파트","일반",129.038745100000000,35.166714020000001
5084,172570401,"화승삼성아파트","일반",129.038974099999990,35.166975770000001
5085,172370302,"당감사거리","일반",129.039664300000000,35.165679590000003
5086,172570101,"당감사거리","일반",129.039980500000010,35.165480459999998
5087,172650301,"당감초등학교","일반",129.039665000000010,35.163416669999997
5088,172570201,"당감초등학교","일반",129.039409500000000,35.163809229999998
5089,172220101,"태을의원","일반",129.038630000000010,35.165363329999998
5090,172570301,"당감4동","일반",129.037828300000000,35.165326669999999
5091,171780201,"신일교회","일반",129.036683299999990,35.166418329999999
5092,172220301,"개성고등학교입구","일반",129.034216700000000,35.164980000000000
5093,172360101,"개성고등학교입구","일반",129.034763300000010,35.164918329999999
5094,172360301,"백양로교회앞","일반",129.031368300000000,35.164303330000003
5095,171930101,"백양로교회앞","일반",129.031649399999990,35.164220739999998
5096,172180402,"개원초등학교","일반",129.028799999999990,35.166248330000002
5097,172600101,"국제프라자아파트","일반",129.027540899999990,35.167632879999999
5098,172180201,"화인아파트","일반",129.028843300000010,35.165431669999997
5101,171940301,"개금주공아파트","일반",129.030528299999990,35.159007889999998
5102,171940302,"개포초등학교","일반",129.028294300000000,35.158460380000001
5103,172050201,"한국신발관","일반",129.025747499999990,35.157854780000001
5104,172070201,"개금3동주민센터","일반",129.022908100000000,35.156077289999999
5106,172060301,"신개금엘지아파트","일반",129.019483400000010,35.154862489999999
5107,172300101,"신개금엘지아파트","일반",129.019137099999990,35.154497730000003
5108,173130301,"개금역.개금초등학교","일반",129.020884999999990,35.154244579999997
5109,172690301,"가야전신전화국","일반",129.029299600000000,35.153759059999999
5110,194660301,"냉정고개","일반",129.015433599999990,35.151767890000002
5111,194660102,"냉정고개","일반",129.017369199999990,35.151841410000003
5112,194660101,"냉정고개","일반",129.017819800000010,35.152142619999999
5113,172310301,"개금역","일반",129.020177700000000,35.152237759999998
5114,172120101,"개금역","일반",129.020420900000000,35.151750079999999
5115,172110303,"개금1치안센터","일반",129.021109999999990,35.150401670000001
5116,172120202,"개금1치안센터","일반",129.020978300000000,35.150263330000001
5117,172270301,"백병원입구","일반",129.019877299999990,35.148298279999999
5118,172790201,"주례여자고등학교","일반",129.016406100000010,35.147829819999998
5119,194590201,"개금시장","일반",129.017263300000000,35.148213329999997
5121,194590202,"백병원입구","일반",129.020225700000000,35.148082209999998
5123,165260201,"벽산아파트","일반",129.023443300000000,35.147705000000002
5124,172030301,"벽산아파트","일반",129.023531700000010,35.147786670000002
5126,165260101,"진성아파트","일반",129.026576699999990,35.148690000000002
5127,172020401,"진성아파트","일반",129.026633299999990,35.148888329999998
5128,172020101,"가야공원입구","일반",129.028865000000000,35.147736670000000
5129,172550201,"가야공원입구","일반",129.029161700000000,35.147681669999997
5130,172550101,"가야고교","일반",129.031196700000010,35.147711670000000
5131,172520401,"가야고교","일반",129.031036699999990,35.147728330000000
5132,172520201,"가야여중","일반",129.034660000000000,35.147880000000001
5133,172730201,"가야여중","일반",129.034550000000000,35.147815000000001
5134,172910201,"가남시장","일반",129.034506700000010,35.149631669999998
5135,171800101,"미진마트","일반",129.035720000000000,35.152140000000003
5136,171800102,"가야1치안센터","일반",129.037125000000000,35.154243330000000
5137,171900301,"가야1치안센터","일반",129.037068299999990,35.154128329999999
5138,172110401,"가야전신전화국","일반",129.029758300000000,35.152926669999999
5139,172690201,"가야전신전화국","일반",129.029658299999990,35.152754999999999
5140,172120203,"가야2동새마을금고","일반",129.029433299999990,35.151056670000003
5141,172110302,"가야2동새마을금고","일반",129.029180000000000,35.151101670000003
5142,172120201,"골목시장","일반",129.024965000000010,35.150991670000003
5143,172110301,"골목시장","일반",129.024333300000000,35.151068330000001
5144,173150101,"개금삼거리","일반",129.025623000000000,35.153019000000000
5145,172010301,"개금삼거리","일반",129.024950600000010,35.153454140000001
5146,172310101,"개금역.개금초등학교","일반",129.021331699999990,35.154117550000002
5147,172060101,"개금3동주민센터","일반",129.023267900000010,35.155871220000002
5148,172070101,"한국신발관","일반",129.025398800000000,35.157280389999997
5149,171950101,"개포초등학교","일반",129.028209199999990,35.158086179999998
5150,171950102,"개금주공아파트","일반",129.031216300000010,35.158817120000002
5151,171940401,"개금주공아파트","일반",129.031751700000000,35.159374999999997
5152,172560101,"당평초등학교","일반",129.034927500000010,35.159736850000002
5153,172660201,"당평초등학교","일반",129.036206200000010,35.160819490000002
5154,172250101,"당감1치안센터","일반",129.042789699999990,35.162021740000000
5155,172340302,"당감1치안센터","일반",129.043812500000000,35.162649090000002
5156,172240101,"진양교차로","일반",129.046620800000000,35.162349800000001
5157,172340301,"진양교차로","일반",129.048107100000010,35.162540849999999
5158,172240102,"진양교차로","일반",129.048443300000000,35.162010029999998
5159,172340101,"부암초등학교","일반",129.050303200000000,35.162958310000000
5160,171860401,"부암초등학교","일반",129.050012799999990,35.163556819999997
5161,172100301,"부암교차로","일반",129.050146600000010,35.166818990000003
5162,171860201,"삼부아파트","일반",129.050605499999990,35.166291559999998
5163,172100201,"부암교차로","일반",129.051567000000010,35.166985470000000
5164,171850201,"부암교차로","일반",129.051511000000000,35.167412620000000
5165,171960201,"부산진구청","일반",129.054383699999990,35.163542300000003
5166,171960401,"부산진구청","일반",129.053795900000010,35.164447619999997
5168,172620102,"부산진중학교","일반",129.055460700000000,35.164467520000002
5169,172620101,"부산시민공원남문","일반",129.058242900000010,35.165575160000003
5171,164470201,"동해선 부전역","일반",129.062360500000010,35.164570519999998
5172,171970101,"늘푸른교회","일반",129.036353999999990,35.169977820000000
5173,164190301,"송상현광장","일반",129.066031500000010,35.167351740000001
5174,164190302,"송상현광장","일반",129.065650100000000,35.166862649999999
5175,165310102,"송상현광장","일반",129.066370000000010,35.166678330000003
5176,165310101,"송상현광장","일반",129.066148300000010,35.166772829999999
5179,164180301,"부전역","일반",129.063019999999990,35.162820000000004
5180,164180302,"부전역","일반",129.062790000000010,35.162551669999999
5181,172140301,"청수탕","일반",129.034719999999990,35.169903329999997
5182,164170402,"부전시장","일반",129.061172199999990,35.160620350000002
5183,164170403,"부전시장","일반",129.060659500000010,35.159810180000001
5184,164420102,"부전시장","일반",129.061431800000010,35.160476119999998
5185,164420101,"부전시장","일반",129.060936700000010,35.159981670000001
5186,164420501,"부전시장입구","일반",129.058269900000000,35.159026189999999
5187,164420502,"부전시장입구","일반",129.056855799999990,35.160760300000000
5188,164360201,"부전시장입구","일반",129.057576399999990,35.159483960000003
5189,164630301,"롯데호텔백화점(서면역)","일반",129.055856500000000,35.157856240000001
5190,164630302,"롯데호텔백화점(서면역)","일반",129.055545999999990,35.157735000000002
5192,172640401,"부암역.당감입구","일반",129.050682300000010,35.158548379999999
5193,172630101,"부암역.당감입구","일반",129.050138500000000,35.158938120000002
5194,172640301,"부암역","일반",129.049013300000010,35.157204999999998
5195,172080101,"부암역","일반",129.048281699999990,35.156714999999998
5196,172080201,"CBS방송국","일반",129.049749999999990,35.152726670000000
5197,164690302,"CBS방송국","일반",129.050711699999990,35.151798329999998
5198,172530101,"CBS방송국","일반",129.049635800000000,35.152251319999998
5199,172540301,"범천건강문화센터","일반",129.048301700000000,35.151100000000000
5200,172530201,"범천건강문화센터","일반",129.048370000000010,35.150891670000000
5201,172540302,"선암초등학교","일반",129.049763300000000,35.149721669999998
5202,172530202,"선암초등학교","일반",129.049688300000010,35.149723330000000
5203,172710101,"약수터입구","일반",129.050389999999990,35.147636669999997
5204,172540201,"약수터입구","일반",129.050385000000010,35.147748329999999
5205,169420103,"서호정사","일반",129.051154999999990,35.145503329999997
5206,172710201,"서호정사","일반",129.051060000000010,35.145443329999999
5207,172710202,"호천마을입구","일반",129.050180000000010,35.144211669999997
5208,169420102,"호천마을입구","일반",129.050400000000000,35.144171669999999
5209,172710203,"안창마을입구","일반",129.048088299999990,35.144428329999997
5211,172700101,"신암.범천2동주민센터","일반",129.053785000000000,35.148493330000001
5212,164690301,"신암.범천2동주민센터","일반",129.053816700000000,35.148564999999998
5213,164690201,"경남아파트","일반",129.055941700000010,35.144019999999998
5214,169710401,"경남아파트","일반",129.056192500000010,35.143552669999998
5215,164230201,"중앙시장","일반",129.059222000000010,35.144058999999999
5216,164230202,"중앙시장","일반",129.059099100000000,35.143283210000000
5217,164230203,"중앙시장","일반",129.059095200000000,35.143127829999997
5218,164220301,"중앙시장","일반",129.059540000000000,35.142376010000000
5219,164220302,"중앙시장","일반",129.059532200000010,35.142718580000000
5221,164220304,"중앙시장","일반",129.059369000000000,35.143908000000003
5222,164230301,"범내골역","일반",129.059467700000000,35.146372810000003
5223,164090201,"범내골역·상공회의소","일반",129.061024699999990,35.147769330000003
5224,164090202,"범내골역.상공회의소","일반",129.061287600000010,35.147858329999998
5225,164290501,"지오플레이스","일반",129.064262799999990,35.150388509999999
5226,172730202,"동의대학교입구","일반",129.033809999999990,35.147599999999997
5227,164090101,"범내골역","일반",129.059417999999990,35.148701000000003
5228,164100302,"범내골역","일반",129.059122300000010,35.148356130000003
5229,164100301,"범내골역","일반",129.059018900000010,35.149034510000000
5230,164670201,"부산진초등학교","일반",129.058225999999990,35.150334000000001
5231,164110101,"교보생명","일반",129.059281700000010,35.151331669999998
5232,164670501,"부산진초등학교","일반",129.057885000000000,35.151123329999997
5233,164650202,"서면복개로","일반",129.057705000000000,35.152410260000003
5234,164650201,"서면복개로","일반",129.057775999999990,35.153564000000003
5235,164670301,"부산진초등학교","일반",129.057088300000000,35.150658329999999
5236,164640301,"서면시장","일반",129.057669600000000,35.156109069999999
5237,164650301,"롯데호텔백화점(서면역)","일반",129.057902799999990,35.157077780000002
5238,164160301,"지오플레이스","일반",129.063213999999990,35.149194039999998
5240,164680302,"서면","일반",129.059043000000000,35.155016000000003
5241,164670502,"서면1번가","일반",129.057914799999990,35.154081949999998
5242,164520301,"서면","일반",129.058989999999990,35.153632999999999
5243,164520302,"서면","일반",129.058955999999990,35.153655160000000
5244,164740101,"서면한전앞","일반",129.059362400000000,35.153320409999999
5245,164740102,"서면","일반",129.059347199999990,35.153862019999998
5246,164520101,"서면","일반",129.059161700000000,35.154998329999998
5247,164520102,"서면","일반",129.059290000000000,35.155659999999997
5250,164170301,"전포초등학교","일반",129.062393300000000,35.159305000000003
5251,164340401,"전포초등학교","일반",129.062405000000010,35.160168329999998
5252,164340402,"전포초등학교","일반",129.062459999999990,35.159736189999997
5253,164340101,"NC서면점","일반",129.063046800000000,35.157678130000001
5254,164330301,"(구)대우자동차","일반",129.068189999999990,35.158239999999999
5257,164320201,"전포사거리","일반",129.065201699999990,35.156610000000001
5258,164320101,"(구)대우자동차","일반",129.066700999999990,35.157768300000001
5259,164280201,"경남공고(전포역)","일반",129.065193300000000,35.153083330000001
5260,164330101,"부산진여자중학교","일반",129.068323300000000,35.155284999999999
5261,164310301,"전포고개","일반",129.068363299999990,35.155848329999998
5263,164310101,"동성고교","일반",129.068289099999990,35.151757850000003
5264,164290401,"성북초등학교","일반",129.067176999999990,35.150095080000000
5265,164240201,"성북초등학교","일반",129.067211700000000,35.149747189999999
5266,164290301,"부산마케팅고등학교","일반",129.069498500000010,35.150084900000003
5267,164560201,"부산마케팅고등학교","일반",129.068963700000010,35.150649319999999
5268,172080301,"가야시장(가야역)","일반",129.043536700000000,35.156145000000002
5269,172090101,"가야시장(가야역)","일반",129.044446700000010,35.155963329999999
5270,164290101,"동성고교","일반",129.068428299999990,35.151541670000000
5271,164570302,"전포고개","일반",129.071226700000010,35.151583330000001
5272,164560101,"전포고개","일반",129.071419999999990,35.151845000000002
5273,164570301,"전포삼거리","일반",129.071789999999990,35.153348330000000
5274,164570101,"전포삼거리","일반",129.071781700000000,35.153686669999999
5275,164580201,"전포아파트","일반",129.071658300000000,35.155225000000002
5276,165270201,"개성고등학교","일반",129.031586699999990,35.170368330000002
5277,164450101,"서면부속상가","일반",129.061021100000000,35.157654960000002
5278,164340201,"부전도서관","일반",129.062333300000010,35.155781670000003
5279,164300201,"경남공고","일반",129.062242800000010,35.152872590000001
5280,164730301,"부전도서관","일반",129.062423300000010,35.153824999999998
5281,164300401,"부전도서관","일반",129.062490300000010,35.154972030000003
5282,164300402,"부전도서관","일반",129.062389999999990,35.155893329999998
5283,172010302,"개금삼거리","일반",129.025800000000000,35.153291000000003
5284,164360102,"동해선 부전역","일반",129.060986700000000,35.163413790000000
5285,165290101,"기점","일반",129.031603700000010,35.170955429999999
5286,171970301,"백양맨션","일반",129.035029000000010,35.170220899999997
5287,172140101,"백양맨션","일반",129.035220000000010,35.170113330000000
5288,171760302,"백양가족공원","일반",129.028926700000000,35.172251670000001
5289,172580101,"백양가족공원","일반",129.029061700000000,35.172266669999999
5290,171760301,"선암사입구","일반",129.030651699999990,35.173540000000003
5291,172580102,"선암사입구","일반",129.030808299999990,35.173569999999998
5292,172560201,"당감3동우체국","일반",129.032987499999990,35.159553430000003
5293,172580201,"백양뜨란채아파트","일반",129.029373300000000,35.171221670000001
5294,172610301,"백양뜨란채아파트","일반",129.029321700000000,35.171323330000000
5295,171730301,"초읍삼거리","일반",129.049050200000010,35.181916469999997
5296,171730101,"초읍삼거리","일반",129.049702599999990,35.182058230000003
5297,164360101,"부전시장","일반",129.058266699999990,35.162381670000002
5298,171720301,"연지청구아파트","일반",129.054802099999990,35.176313190000002
5299,171710202,"연지한신타워","일반",129.054637500000010,35.175831209999998
5300,172160402,"개성고등학교","일반",129.031827900000000,35.170311620000000
5301,171760201,"동원초등학교","일반",129.032883300000010,35.172196669999998
5302,172140502,"동원초등학교","일반",129.032988300000000,35.172118330000004
5303,165240101,"동평유치원","일반",129.040923300000000,35.168266670000001
5304,172370402,"동평유치원","일반",129.041085000000010,35.167911670000002
5305,172370401,"당감시장","일반",129.041732000000000,35.166257920000000
5306,172130101,"당감시장","일반",129.041415099999990,35.166414469999999
5307,172590101,"당감주공3단지상가","일반",129.027186699999990,35.171601670000001
5308,172580301,"당감주공3단지상가","일반",129.027156700000010,35.171673329999997
5309,171920101,"개금주공아파트","일반",129.031561399999990,35.159437500000003
5311,209530101,"화신아파트(종점)","일반",129.071100000000000,35.159086670000001
5313,164570102,"전포아파트","일반",129.071653400000000,35.155983620000001
5315,208190201,"은하수공원","일반",129.031395000000000,35.174001670000003
5318,169710101,"범내골역3번출구·춘해병원","일반",129.058870100000010,35.146713419999998
5319,164710101,"롯데호텔백화점(서면역)","일반",129.056578000000000,35.157491999999998
5320,172450401,"(구)당감4동주민센터","일반",129.036665000000000,35.168336670000002
5321,164710102,"롯데호텔백화점(서면역)","일반",129.056777799999990,35.157375150000000
5322,164580301,"파티마의원","일반",129.071073299999990,35.156863330000000
5323,165060201,"파티마의원","일반",129.070896400000010,35.156899619999997
5324,169710301,"부산범천교회","일반",129.055136400000010,35.142009109999996
5325,172270302,"개금시장","일반",129.017329499999990,35.148359059999997
5327,164170401,"부전시장","일반",129.061801100000000,35.161407169999997
5329,172550102,"동의대학교입구","일반",129.032918900000000,35.147959260000000
5330,165240201,"부암3동주민센터","일반",129.039364799999990,35.168718530000000
5334,172360401,"태우선파크APT","일반",129.033125899999990,35.167361390000003
5335,171790301,"(구)당감4동주민센터","일반",129.037124600000000,35.168050680000000
5336,164050201,"양정청소년수련원","일반",129.071840100000000,35.176799010000003
5337,164920201,"롯데캐슬스카이","일반",129.065456700000000,35.162906669999998
5338,164350201,"전포동","일반",129.066941100000010,35.159741120000000
5339,164400201,"(구)대우자동차","일반",129.068173000000000,35.158043300000003
5340,172340303,"진양교차로","일반",129.046664499999990,35.162833689999999
5341,172480302,"국립부산국악원","일반",129.055186300000000,35.171288300000001
5342,172480101,"부산시민공원","일반",129.056211999999990,35.170770460000000
5343,172310201,"개금역","일반",129.021729700000010,35.152996780000002
5344,164620303,"부산글로벌빌리지(부암역)","일반",129.051079899999990,35.157123990000002
5345,172310401,"개금역","일반",129.019490300000000,35.153325860000002
5346,172160301,"태우선파크APT","일반",129.032878799999990,35.167393060000002
5347,172640101,"부산글로벌빌리지","일반",129.052146999999990,35.157355699999997
5348,172410202,"당감동일스위트","일반",129.026798899999990,35.169157630000001
5349,164260501,"경남공고","일반",129.062504499999990,35.151986870000002
5350,164180401,"송상현광장","일반",129.063221500000000,35.164407230000002
5351,216760101,"부산시민공원남문","일반",129.058171300000000,35.165628650000002
5352,216760102,"부산진중학교","일반",129.055428500000000,35.164566809999997
5353,171690101,"어린이대공원","일반",129.047489700000000,35.182101650000000
5354,171690201,"어린이대공원","일반",129.047718699999990,35.181822940000004
5355,173090201,"부산학생교육문화회관","일반",129.047393800000010,35.183747920000002
5356,164270101,"경남공고(전포역)","일반",129.065647600000010,35.152727390000003
5357,164280401,"전포사거리","일반",129.065607599999990,35.155701909999998
5358,164320301,"NC서면점","일반",129.063034800000000,35.157886019999999
5359,164700401,"부산진구청후문","일반",129.052810599999990,35.161377229999999
5360,220370101,"부산진구청정문","일반",129.052427200000010,35.163150010000003
5364,506970000,"부산진경찰서","일반",129.054797699999990,35.160212569999999
5365,506980000,"서면교차로","일반",129.061750999999990,35.157888800000002
5701,505840000,"상수도사업본부","일반",129.072566800000000,35.174823940000003
5702,505830000,"상수도사업본부","일반",129.072540500000000,35.174436890000003
5703,505910000,"양정역","일반",129.069959200000000,35.171538769999998
5704,505920000,"양정역","일반",129.069876400000000,35.171089610000003
5705,505890000,"송상현광장","일반",129.065461000000000,35.166393360000001
5706,505900000,"송상현광장","일반",129.065312000000010,35.165927300000000
5707,505820000,"부전역","일반",129.063209000000000,35.163043389999999
5708,505810000,"부전시장","일반",129.060758400000000,35.159647190000001
5709,505800000,"부전시장","일반",129.061084700000010,35.160403119999998
5710,505860000,"서면역 서면지하상가","일반",129.059251899999990,35.155166999999999
5711,505850000,"서면역 서면지하상가","일반",129.059019100000000,35.155945959999997
5712,505870000,"서면한전","일반",129.059286700000000,35.152413359999997
5713,505880000,"서면한전","일반",129.059038100000010,35.153215109999998
6001,166150101,"식물원입구","일반",129.081729200000010,35.223726220000003
6002,166140201,"식물원입구","일반",129.082117500000010,35.224185830000003
6003,166150301,"온천시장","일반",129.080987900000000,35.222057530000001
6004,165860102,"온천시장","일반",129.080850900000000,35.221344940000002
6005,165860101,"금강원입구","일반",129.080488000000000,35.220267720000002
6007,166150302,"온천장","일반",129.079773700000000,35.219326559999999
6008,165860301,"금강원입구","일반",129.079208999999990,35.218279590000002
6010,165850401,"온천장","일반",129.081948799999990,35.219077509999998
6011,165350201,"온천장역.SK허브스카이","일반",129.085022000000010,35.221747999999998
6012,165400101,"온천장역.SK허브스카이","일반",129.085002400000010,35.221091370000003
6013,209960101,"온천장","일반",129.083413500000010,35.219564689999999
6014,210750301,"스파쇼핑","일반",129.084689999999990,35.218820000000001
6015,166160101,"온천장역","일반",129.085033399999990,35.218496950000002
6017,174370203,"온천입구","일반",129.086756100000000,35.217626500000001
6018,165820103,"온천입구","일반",129.085095000000000,35.216538329999999
6019,165390401,"온천입구","일반",129.085185000000000,35.216614999999997
6020,165390402,"온천입구","일반",129.084436700000000,35.216126670000001
6021,165510101,"온천장","일반",129.084266700000000,35.217683330000000
6022,166160301,"온천장아스타아파트","일반",129.083507999999990,35.217125000000003
6023,165850201,"온천장","일반",129.083606300000010,35.218283360000001
6024,166480101,"온천장","일반",129.082438400000000,35.218340060000003
6025,179510301,"늘봄호텔","일반",129.079750999999990,35.215913499999999
6026,166840201,"구 온천시장","일반",129.079422099999990,35.216378380000002
6027,179450101,"전자공고","일반",129.077437800000010,35.215074370000004
6028,166010301,"원예고등학교","일반",129.075490000000000,35.213741669999997
6029,165950101,"효자암","일반",129.066598699999990,35.215955880000003
6030,165500501,"롯데백화점동래점(명륜역)","일반",129.078008299999990,35.212699999999998
6031,165500101,"롯데백화점동래점(명륜역)","일반",129.079116000000000,35.213384830000003
6033,165510201,"명륜역","일반",129.079733000000000,35.213503299999999
6034,165500201,"명륜역","일반",129.079446700000010,35.212688329999999
6035,179490201,"명륜역","일반",129.078714300000000,35.212523490000002
6036,165390403,"동래구노인복지관","일반",129.083130000000010,35.213571670000000
6037,165390404,"동래구노인복지관","일반",129.083058300000000,35.213290000000001
6038,165820102,"동래구노인복지관","일반",129.083445200000000,35.214347920000002
6039,165330102,"개별화물협회","일반",129.064984000000010,35.214976759999999
6040,165820101,"동래구노인복지관","일반",129.083284200000010,35.213494709999999
6041,167140101,"동래우체국","일반",129.082548300000010,35.209840000000000
6042,167140102,"명륜초등학교","일반",129.082495300000010,35.208847660000004
6044,165820202,"동래우체국","일반",129.082383400000000,35.209778489999998
6045,165820201,"동래우체국","일반",129.082383300000000,35.209321670000001
6046,166000201,"롯데백화점동래점","일반",129.077779999999990,35.210256670000000
6047,166060201,"럭키주유소","일반",129.077923300000010,35.208896670000001
6048,166030201,"럭키아파트후문","일반",129.075451399999990,35.209929350000003
6049,166030101,"농협","일반",129.073600199999990,35.210718739999997
6050,166030301,"농협","일반",129.073216699999990,35.210173330000003
6051,166020201,"온천초등학교","일반",129.073018899999990,35.211810900000003
6052,165990301,"온천초등학교","일반",129.073282100000000,35.211974259999998
6053,165940201,"우장춘기념관","일반",129.072418800000010,35.212549019999997
6054,166020301,"우장춘기념관","일반",129.071850899999990,35.212510299999998
6055,166720501,"화신아파트","일반",129.065929500000010,35.210565099999997
6056,165950102,"만덕터널입구","일반",129.057818200000010,35.212203459999998
6057,165330101,"만덕터널입구","일반",129.057712100000000,35.211990020000002
6058,165950401,"화신아파트","일반",129.065260300000010,35.210640159999997
6059,166720401,"화신아파트","일반",129.065426300000010,35.209372620000003
6060,165940301,"농협미남지점","일반",129.070173299999990,35.209684160000002
6061,166730101,"농협미남지점","일반",129.070470099999990,35.209709969999999
6064,166030302,"럭키아파트","일반",129.072820699999990,35.208478370000002
6065,166040101,"럭키아파트","일반",129.073025000000000,35.208413299999997
6066,166630301,"동래역","일반",129.077793300000000,35.205959999999997
6067,166180401,"동래역","일반",129.078174999999990,35.206061380000001
6070,165750301,"동래전화국","일반",129.082635000000010,35.204423329999997
6071,165730101,"동래전화국","일반",129.082623500000010,35.204144339999999
6072,165730102,"동래전화국","일반",129.082736600000000,35.203896380000003
6074,165740301,"메가마트","일반",129.082763900000000,35.202423000000003
6075,165740302,"메가마트","일반",129.082144500000000,35.202745380000003
6076,166290202,"메가마트","일반",129.082199000000000,35.202368730000003
6077,166290201,"대동병원","일반",129.079871700000010,35.203541670000000
6078,166010201,"롯데백화점동래점","일반",129.077017899999990,35.213636059999999
6079,166170101,"동래역","일반",129.078177500000010,35.203910229999998
6080,166170201,"내성중학교","일반",129.077813300000000,35.202875849999998
6081,166290301,"대동병원","일반",129.079534999999990,35.203891669999997
6082,165780301,"동래역(내성교차로)","일반",129.078471600000000,35.204396699999997
6083,165780302,"동래역(내성교차로)","일반",129.078415600000000,35.204561720000001
6084,166040201,"동래럭키아파트","일반",129.073801900000010,35.206015700000002
6085,179270301,"동래럭키아파트","일반",129.075092000000010,35.205742000000001
6086,166040202,"광혜병원","일반",129.072793200000010,35.206424769999998
6087,166810301,"미남교차로(미남역)","일반",129.071118299999990,35.207398329999997
6088,166900101,"광혜병원(미남역)","일반",129.071398200000000,35.207027150000002
6089,165440201,"뜨란채아파트","일반",129.108431800000010,35.194057620000002
6090,166780101,"미남역(반도스카이뷰)","일반",129.068246800000000,35.205420240000002
6091,166780102,"미남역(반도스카이뷰)","일반",129.067645599999990,35.204542609999997
6092,166770301,"미남역(반도스카이뷰)","일반",129.067562299999990,35.205120829999998
6093,166780301,"반도스카이뷰","일반",129.066556300000000,35.203452100000000
6095,166640101,"사직1치안센터","일반",129.065215999999990,35.201263109999999
6096,166640102,"사직1치안센터","일반",129.065023999999990,35.200934670000002
6097,167600301,"사직1치안센터","일반",129.064928700000000,35.201313460000001
6098,167600302,"사직1치안센터","일반",129.064723600000010,35.201014909999998
6100,167020301,"안남초등학교","일반",129.107311700000000,35.191973330000003
6101,165440101,"뜨란채아파트","일반",129.110300000000000,35.194679999999998
6102,166070202,"뜨란채아파트","일반",129.110306700000000,35.194805000000002
6103,165810301,"사직여중","일반",129.056415800000000,35.195020839999998
6104,165800304,"원광사","일반",129.054115599999990,35.194783450000003
6105,165810302,"사직여고","일반",129.053621800000000,35.197242019999997
6106,165810303,"사직중학교","일반",129.054286600000010,35.199448779999997
6107,165810304,"사직초등학교","일반",129.055778500000000,35.200631020000003
6108,165800201,"사직2동주민센터","일반",129.056907900000000,35.200335240000001
6109,210140301,"사직2동주민센터","일반",129.057125700000000,35.200448000000002
6110,166600301,"삼익아파트","일반",129.059407499999990,35.199625859999998
6111,165800202,"삼익아파트","일반",129.058832700000010,35.199657060000000
6112,166600201,"국민시장","일반",129.060000100000000,35.198956230000000
6113,166850101,"사직운동장","일반",129.065297300000000,35.194900330000003
6114,165800302,"사직초등학교","일반",129.055370500000010,35.200588070000002
6115,166760401,"미남교차로(미남역)","일반",129.068168800000000,35.206098330000003
6116,165800301,"동인고등학교","일반",129.053146700000010,35.197947730000003
6117,165800303,"사직여고","일반",129.053532899999990,35.196668119999998
6119,165800305,"사직여중","일반",129.056737900000000,35.194827170000003
6120,166620101,"쌍용예가입구","일반",129.058117700000000,35.197087660000001
6122,166610401,"사직사거리","일반",129.060290799999990,35.198527149999997
6123,166610101,"사직사거리","일반",129.061398099999990,35.198305689999998
6124,166610201,"사직사거리","일반",129.060650700000000,35.196852360000001
6125,166610202,"사직야구장","일반",129.060744599999990,35.196239310000003
6126,166660301,"사직운동장","일반",129.065186700000000,35.195167609999999
6129,166260101,"사직운동장","일반",129.065362700000010,35.196410440000001
6131,166260301,"사직야구장","일반",129.062232900000000,35.196132110000001
6132,193720302,"여명중학교","일반",129.069032600000010,35.196009349999997
6133,166660101,"여명중학교","일반",129.069914700000000,35.195963910000003
6134,193720301,"법원어귀교차로","일반",129.070580900000010,35.196234910000001
6135,165960201,"대선주조","일반",129.072024199999990,35.196663979999997
6136,166830201,"사직동","일반",129.070302400000000,35.199270020000000
6140,165640301,"화신아파트","일반",129.075829400000000,35.198780640000003
6141,165650201,"부전교회","일반",129.077778999999990,35.199883999999997
6142,165640401,"부전교회","일반",129.077953699999990,35.200324279999997
6143,165740201,"동래경찰서","일반",129.084425000000010,35.199866669999999
6144,165560401,"동래경찰서(수안역)","일반",129.084215000000000,35.200918330000000
6145,165560101,"동래경찰서","일반",129.085055000000010,35.200510000000001
6146,165600305,"동래시장","일반",129.085705700000010,35.201483170000003
6147,165610204,"동래시장입구","일반",129.085440400000010,35.201259200000003
6150,165600303,"동래시장","일반",129.087329600000000,35.201223530000000
6151,165610201,"동래시장","일반",129.086141000000000,35.201225000000001
6152,165610207,"동래시장","일반",129.086656600000000,35.201051319999998
6153,165610203,"동래시장","일반",129.088203600000010,35.200783649999998
6154,165600302,"동래시장","일반",129.088028299999990,35.201043329999997
6155,165600301,"동래고등학교(낙민역)","일반",129.089512000000010,35.200707999999999
6156,165610205,"동래고등학교(낙민역)","일반",129.089398800000000,35.200653920000001
6157,165600201,"동래한양아파트","일반",129.092535000000000,35.199506669999998
6158,165600202,"낙민역(동래고등학교)","일반",129.092210999999990,35.199566570000002
6159,166590201,"동래한양아파트","일반",129.092682999999990,35.199593000000000
6160,166590202,"동래한양아파트","일반",129.092979600000010,35.199628220000001
6161,166590203,"낙민역(동래고등학교)","일반",129.094625100000000,35.199031910000002
6162,166430201,"동래봉생병원","일반",129.095391600000000,35.197480830000003
6163,166450301,"우성아파트","일반",129.092488600000000,35.194940160000002
6164,166450101,"우성아파트","일반",129.092927100000000,35.194955250000000
6165,166440101,"동래봉생병원","일반",129.095321700000000,35.197178330000000
6168,166460401,"벽산아파트","일반",129.098138299999990,35.194899999999997
6170,166410201,"동부산아이존빌아파트","일반",129.105487100000000,35.192030140000000
6171,165920401,"안락경동아파트","일반",129.105231699999990,35.192279999999997
6173,166400101,"안락동우체국(동해선안락역)","일반",129.100713300000000,35.197116670000000
6174,166390301,"안락동우체국(동해선안락역)","일반",129.100975000000010,35.197213329999997
6176,166950201,"안락국민은행","일반",129.104306700000000,35.197310000000002
6177,166380301,"동래한전","일반",129.105214999999990,35.196554999999996
6178,165430301,"동래한전","일반",129.106361700000010,35.196354999999997
6179,166380101,"동래한전","일반",129.106138300000000,35.196306669999998
6180,166070101,"안락SK아파트","일반",129.113144000000010,35.194350999999997
6181,166070201,"안락SK아파트","일반",129.112529999999990,35.194543330000002
6182,166340201,"충렬주유소","일반",129.109815000000000,35.196066670000000
6183,167000101,"안락2동주민센터","일반",129.109184900000000,35.197287850000002
6184,165530301,"안락2동수협","일반",129.110568300000010,35.198601670000002
6185,166500301,"명장조양맨션(명장역)","일반",129.102761700000000,35.205973329999999
6188,166330101,"진흥상가","일반",129.104559999999990,35.200496670000000
6189,166510203,"진흥상가","일반",129.104503300000000,35.199788329999997
6191,165900202,"삼성아파트","일반",129.103019999999990,35.199811670000003
6193,165900201,"서원시장","일반",129.100336700000010,35.200448330000000
6195,179300201,"충렬사역(서원시장)","일반",129.098373299999990,35.201241670000002
6197,165590101,"충렬사역(서원시장)","일반",129.098248600000010,35.200638710000000
6198,166570101,"명장조양맨션(명장역)","일반",129.101447100000000,35.204423650000003
6199,166560301,"명장조양맨션(명장역)","일반",129.101199799999990,35.204627010000003
6201,166570102,"명장조양맨션(명장역)","일반",129.101153299999990,35.204106670000002
6202,166490201,"명장조양맨션(명장역)","일반",129.102087799999990,35.206015469999997
6203,166130101,"협진태양맨션","일반",129.104755000000010,35.210108329999997
6204,175490201,"협진태양맨션","일반",129.104514800000000,35.210208989999998
6205,175060301,"협진태양맨션","일반",129.103955000000010,35.210276669999999
6206,179390301,"명장1동주민센터","일반",129.105025200000000,35.204923270000002
6207,166510101,"명장1동주민센터","일반",129.105196000000010,35.204752229999997
6208,166330103,"명장1동주민센터","일반",129.104633299999990,35.204506670000001
6209,166510201,"명장1동주민센터","일반",129.104548300000000,35.204250000000002
6210,166510202,"안락초등학교","일반",129.104085000000000,35.202908330000000
6211,166330102,"안락초등학교","일반",129.104270000000010,35.202120000000001
6212,166510102,"명장시장","일반",129.107737500000010,35.204530339999998
6213,166110301,"명장시장","일반",129.107463499999990,35.204721679999999
6214,179380101,"혜화여고 충렬고","일반",129.110818300000010,35.202021670000001
6215,179370301,"혜화여고 충렬고","일반",129.110825000000010,35.202061669999999
6216,165540101,"충렬초등학교","일반",129.112509999999990,35.200085000000001
6217,179410201,"충렬초등학교","일반",129.112343799999990,35.199165700000002
6218,166890201,"사직실내수영장","일반",129.064304200000010,35.192969220000002
6219,166320101,"명장정수사업소","일반",129.103618299999990,35.207968330000000
6220,165830201,"명장정수사업소","일반",129.103433300000010,35.208013330000000
6221,166680101,"화신아파트","일반",129.065268400000010,35.209102629999997
6222,166540101,"한우크로바아파트","일반",129.109494000000010,35.199075999999998
6223,165760201,"명륜역.동래중학교","일반",129.079963200000010,35.210120730000000
6224,167360101,"명륜교차로","일반",129.081565000000010,35.208170920000001
6225,166460101,"강변뜨란채아파트","일반",129.100709400000000,35.193644900000002
6226,167020101,"뜨란채아파트","일반",129.108750200000000,35.193981819999998
6227,165920501,"안남초등학교","일반",129.107606299999990,35.191983149999999
6228,166420101,"강변뜨란채아파트","일반",129.102755599999990,35.195488670000003
6229,166360301,"안락교차로","일반",129.097680900000000,35.197933730000003
6230,166360302,"벽산아파트","일반",129.098036000000010,35.194671980000003
6231,166410301,"강변뜨란채입구","일반",129.101989600000000,35.193564270000003
6232,165350101,"온천장역.CGV동래","일반",129.085300700000000,35.221985740000001
6234,166250301,"사직역","일반",129.065680100000010,35.197869390000001
6235,166640201,"사직역","일반",129.065269400000010,35.197703320000002
6236,167600101,"미남역","일반",129.067424700000000,35.203993609999998
6238,166610301,"사직사거리","일반",129.060169800000010,35.197657180000000
6239,166620201,"쌍용예가입구","일반",129.057691500000000,35.196853920000002
6240,167300101,"사직야구장","일반",129.060435799999990,35.195388110000003
6241,166790201,"사직성당","일반",129.069420600000000,35.203349170000003
6242,166830401,"사직성당","일반",129.069643500000010,35.203450599999996
6243,166640301,"사직1동주민센터","일반",129.061980100000000,35.198891660000001
6244,165560301,"세병교","일반",129.083526299999990,35.197558020000002
6245,166100101,"세병교","일반",129.083921900000010,35.197526300000000
6246,166360401,"안락교차로","일반",129.096953200000000,35.198399459999997
6247,166840301,"온천프라자","일반",129.077334799999990,35.215312179999998
6248,166410202,"안락경동아파트","일반",129.106745999999990,35.191306779999998
6249,166460201,"안진초등학교","일반",129.098596500000010,35.193356080000001
6250,500960000,"동래경찰서후문","일반",129.085003800000010,35.200462700000003
6251,165610101,"동래시장정문.수안치안센터","일반",129.085596299999990,35.202946760000003
6252,165610102,"부산은행 동래금융센터","일반",129.084648899999990,35.204389589999998
6253,165450401,"복산동주민센터","일반",129.085488199999990,35.206300120000002
6254,504600000,"사직중학교","일반",129.053742800000010,35.199192140000001
6257,505070000,"명장농협","일반",129.099692199999990,35.202977120000000
6258,505060000,"명장농협","일반",129.099879600000010,35.202793640000003
6259,507420000,"미남교","일반",129.065716200000000,35.208777189999999
6701,166070204,"부산원동역","일반",129.112670700000000,35.194550640000003
6702,165440103,"부산원동역","일반",129.112117100000010,35.194371060000002
6703,166070203,"안락뜨란채 삼거리","일반",129.109978000000010,35.194898000000002
6705,165430302,"동래한전","일반",129.105896800000010,35.196443940000002
6706,166880201,"동래한전","일반",129.104492599999990,35.196481880000000
6707,166390302,"안락동우체국(동해선안락역)","일반",129.102138500000000,35.196937310000003
6708,166400102,"안락동우체국(동해선안락역)","일반",129.101272300000010,35.196979390000003
6709,502440000,"낙민역(동래고등학교)","일반",129.092695099999990,35.199633179999999
6710,502450000,"낙민역(동래고등학교)","일반",129.092097800000000,35.199675040000002
6711,502460000,"동래시장","일반",129.087941000000000,35.200969999999998
6712,502470000,"동래시장","일반",129.087054999999990,35.201132999999999
6713,502480000,"수안역(동래교차로)","일반",129.084476999999990,35.201667000000000
6714,502000000,"수안역(동래교차로)","일반",129.083350999999990,35.201926999999998
6715,502010000,"메가마트 동래점","일반",129.081880200000000,35.202820719999998
6716,502020000,"메가마트 동래점","일반",129.081101300000000,35.203059400000001
6717,502030000,"동래역(내성교차로)","일반",129.078448900000010,35.204312520000002
7002,180710101,"동부변전소","일반",129.094314000000000,35.147485000000003
7003,180720201,"성모병원대남초등학교입구","일반",129.095258000000000,35.147608110000000
7004,180790101,"낙농마을","일반",129.098047500000010,35.145071780000002
7005,199490101,"대남교차로","일반",129.104207000000000,35.140627940000002
7006,199480301,"경성대 부경대역","일반",129.102307400000000,35.138561240000001
7007,180870101,"경성대 부경대역","일반",129.102110000000010,35.138204999999999
7008,181570301,"부산성모병원","일반",129.111036700000000,35.112065000000001
7009,180390302,"경성대학교입구","일반",129.100536699999990,35.136331669999997
7010,180750201,"경성대학교입구","일반",129.100591700000000,35.136423330000000
7011,180390301,"부경대대연캠퍼스","일반",129.101210000000010,35.132894999999998
7012,180750202,"부경대대연캠퍼스","일반",129.101146699999990,35.132373330000000
7013,180750301,"경성대학교","일반",129.097869000000000,35.136426999999998
7014,180700102,"경성대학교","일반",129.097366700000010,35.136074999999998
7015,180700101,"대연역","일반",129.094826700000000,35.135351669999999
7016,180750302,"대연역","일반",129.095049999999990,35.135523329999998
7017,180710401,"경동메르빌","일반",129.092887400000000,35.149578769999998
7018,180700201,"대연사거리(대연역)","일반",129.093421699999990,35.135157929999998
7020,180680101,"대연초등학교","일반",129.091714999999990,35.136221669999998
7021,180740102,"대연초등학교","일반",129.091590000000000,35.136516669999999
7022,180740101,"대연교회","일반",129.090768200000010,35.138047200000003
7023,180740301,"대연교회","일반",129.090076700000000,35.138120000000001
7024,180210102,"부산세무고","일반",129.086698899999990,35.137998949999997
7025,180250301,"부산세무고","일반",129.086158299999990,35.138141670000003
7026,180210101,"연포초등학교","일반",129.083058300000000,35.138268330000002
7027,181640301,"연포초등학교","일반",129.081622000000010,35.138461000000000
7028,179900101,"대연SK뷰아파트","일반",129.078727899999990,35.141372900000000
7029,180060201,"대연SK뷰아파트","일반",129.078955900000010,35.141462859999997
7030,179890101,"현대주유소","일반",129.076040000000010,35.143439999999998
7032,179880301,"문현현대APT","일반",129.076763300000010,35.144317399999998
7033,179920201,"문현초등학교","일반",129.072450000000000,35.145671669999999
7034,164240301,"문전교차로","일반",129.065969999999990,35.148323329999997
7035,179650201,"성동초등학교후문","일반",129.066520000000000,35.143098330000001
7036,179680201,"성동초등학교후문","일반",129.066920000000010,35.142659999999999
7037,179910301,"한양아파트","일반",129.071100000000000,35.143458330000001
7038,179890102,"문현삼거리","일반",129.072973300000000,35.141734999999997
7039,179860101,"문현3동행정복지센터","일반",129.071304000000000,35.138841999999997
7040,179790201,"문현3동행정복지센터","일반",129.071059999999990,35.138969000000003
7041,179670301,"삼성아파트(문현역)","일반",129.067475400000010,35.139590470000002
7042,179680301,"문현역","일반",129.067467800000000,35.138102580000002
7043,179650102,"문전교차로","일반",129.066893300000000,35.147575000000003
7044,179660301,"문현교차로","일반",129.067010000000010,35.134768330000000
7045,179740101,"문현교차로","일반",129.067491700000010,35.134866670000001
7046,179860402,"문현교차로","일반",129.070168000000000,35.137028000000001
7047,179860401,"문현교차로","일반",129.070445000000010,35.136988330000001
7048,179810301,"문현교차로","일반",129.071549000000000,35.137115999999999
7050,179860201,"문현교차로","일반",129.071703300000000,35.136595000000000
7051,179810201,"문현교차로","일반",129.071941900000010,35.136538450000003
7052,179810202,"지게골역","일반",129.075729999999990,35.134805000000000
7053,179850301,"지게골역","일반",129.075736699999990,35.135058330000000
7055,179850102,"대연고개","일반",129.080400000000000,35.134126999999999
7056,179850103,"대연고개","일반",129.080886700000010,35.134256669999999
7057,180050203,"대연고개","일반",129.080156700000000,35.134146670000000
7058,505430000,"대연고개","일반",129.080331300000010,35.134265319999997
7059,180050201,"대연고개","일반",129.080851700000010,35.134426670000003
7060,180220101,"못골시장","일반",129.087639999999990,35.134871670000003
7061,180950101,"못골시장","일반",129.088756200000010,35.134836380000003
7062,180640202,"못골시장","일반",129.088475800000000,35.135064239999998
7063,180640201,"못골시장","일반",129.088725000000010,35.134991669999998
7064,180350201,"대연역.부산은행","일반",129.091796200000000,35.134639110000002
7065,180340501,"대연역.부산은행","일반",129.092018300000010,35.134030000000003
7066,180340401,"유엔교차로(산성교회)","일반",129.091469999999990,35.130229999999997
7067,179650101,"국제금융센터(부산은행역)","일반",129.067046900000010,35.145480530000000
7068,180230301,"부산공고","일반",129.088505000000000,35.129953329999999
7070,180230302,"동림맨션","일반",129.084730000000010,35.128419000000001
7071,180230303,"성지고등학교","일반",129.081291700000010,35.127240000000000
7072,181570201,"백운포고개","일반",129.111920000000000,35.108770000000000
7073,180910101,"백운포고개","일반",129.112058300000000,35.108680000000000
7074,212620301,"우암뉴서울아파트","일반",129.079203299999990,35.124956670000003
7075,180020201,"우암초등학교","일반",129.076400000000010,35.124673330000000
7076,179960202,"우암초등학교","일반",129.076281700000010,35.124478330000002
7077,179960301,"남부중앙새마을금고","일반",129.070335000000000,35.125276669999998
7078,181680101,"백운포","일반",129.112873500000010,35.104524980000001
7079,179960302,"7부두","일반",129.067721699999990,35.126955000000002
7080,179700201,"7부두","일반",129.067761700000010,35.126399999999997
7081,179960201,"남부중앙새마을금고","일반",129.071661699999990,35.125093329999999
7083,212600201,"우암자유아파트","일반",129.079958299999990,35.123461669999998
7084,180160301,"우암자유아파트","일반",129.080103299999990,35.123628330000003
7085,180030101,"감만창의문화촌","일반",129.080815000000000,35.119393330000001
7086,180030201,"감만창의문화촌","일반",129.080288300000010,35.118594999999999
7087,180030202,"감만시장","일반",129.080905100000000,35.116730259999997
7088,181360301,"감만시장","일반",129.081171299999990,35.117033890000002
7089,181350301,"감만동","일반",129.081394999999990,35.115816670000001
7095,180160102,"동천초등학교","일반",129.083536000000010,35.122314299999999
7096,180160101,"동천초등학교","일반",129.083776000000000,35.122471599999997
7097,180170301,"동천초등학교","일반",129.083622999999990,35.122558300000001
7098,180170101,"남광시장","일반",129.086710000000010,35.123403330000002
7099,180180302,"남광시장","일반",129.087333300000010,35.123828330000002
7101,180170102,"석포초등학교","일반",129.089865000000000,35.126481669999997
7102,180180301,"석포초등학교","일반",129.090143299999990,35.126938330000002
7103,180180101,"시립박물관","일반",129.091714000000000,35.128807739999999
7105,180560301,"시립박물관","일반",129.091468300000000,35.128794999999997
7108,180540101,"유엔공원.부산문화회관","일반",129.095319999999990,35.126899999999999
7109,180510401,"유엔공원.부산문화회관","일반",129.095625000000010,35.126294999999999
7110,180480401,"한신문화타운","일반",129.097108300000000,35.123463330000000
7111,180490201,"한신문화타운","일반",129.097084999999990,35.123379999999997
7112,180480301,"동명대학교후문","일반",129.098041700000010,35.120566670000002
7113,180900101,"동명대학교후문","일반",129.098145600000010,35.120164449999997
7114,180900202,"부경대용당캠퍼스","일반",129.095876699999990,35.118004999999997
7115,180150102,"부경대용당캠퍼스","일반",129.096489999999990,35.118304999999999
7119,180890202,"동명대학교정문","일반",129.099098300000010,35.122813330000000
7120,180480101,"동명대학교정문","일반",129.099341700000000,35.122655000000002
7121,180890201,"한국산업인력공단 남부지사","일반",129.101517100000000,35.127141500000000
7122,180480102,"한국산업인력공단 남부지사","일반",129.101927800000000,35.127116370000003
7123,180890101,"대천중학교","일반",129.103151700000010,35.128023329999998
7124,180320301,"대천중학교","일반",129.102758300000000,35.128056669999999
7125,180380101,"도로교통공단","일반",129.103600000000000,35.130519999999997
7126,180360301,"도로교통공단","일반",129.103033299999990,35.130938329999999
7127,180520401,"남부운전면허시험장","일반",129.107681700000000,35.128031669999999
7128,180570101,"남부운전면허시험장","일반",129.107319999999990,35.128116669999997
7129,180520201,"용문중학교","일반",129.109953300000000,35.126256669999997
7130,179600401,"용문중학교","일반",129.110340000000010,35.126231670000003
7131,179600301,"이기대입구","일반",129.112443300000000,35.123816669999997
7133,180800102,"이기대입구","일반",129.112634899999990,35.123968499999997
7136,180800101,"용호사거리","일반",129.112366200000000,35.121226270000001
7137,181570304,"용호사거리","일반",129.111895000000000,35.118896669999998
7138,180800302,"용호사거리","일반",129.111761699999990,35.118911670000003
7139,180800301,"용호2동주민센터","일반",129.110870799999990,35.115830860000003
7140,181570303,"용호2동주민센터","일반",129.111071799999990,35.115759779999998
7141,181570302,"용호2동주민센터","일반",129.111158899999990,35.115122100000001
7142,180800303,"부산성모병원","일반",129.110956700000000,35.112201669999997
7147,179620101,"문현동","일반",129.065603500000010,35.142695269999997
7155,180810301,"남부경찰서","일반",129.090559200000000,35.151594340000003
7156,180810302,"청구아파트","일반",129.088941000000010,35.153763910000002
7157,180930201,"삼익아파트","일반",129.088555700000000,35.152902109999999
7158,180930202,"신원아파트","일반",129.088658200000000,35.152329790000003
7159,181210101,"대우아파트","일반",129.089115200000010,35.150998010000002
7160,180830201,"장백아파트","일반",129.090538000000010,35.149075000000003
7161,180850201,"대연비치아파트","일반",129.108295000000000,35.137636669999999
7164,180050101,"남구청(못골역)","일반",129.083992900000000,35.134582109999997
7165,180220301,"남구청(못골역)","일반",129.084237000000000,35.134751999999999
7168,164240302,"국제금융센터(부산은행역)","일반",129.066534999999990,35.145411670000001
7170,180750101,"경성대부경대역","일반",129.100394999999990,35.137492999999999
7171,181670201,"백운포","일반",129.112553899999990,35.104535720000001
7172,180850202,"메가마트 남천점","일반",129.110413800000000,35.135813980000002
7175,180880201,"LG메트로시티","일반",129.108621900000000,35.132517149999998
7176,180490301,"석포여중","일반",129.096102699999990,35.124720660000001
7177,180450201,"석포여중","일반",129.095746800000000,35.125155499999998
7178,213320101,"오륙도초중학교","일반",129.115430199999990,35.104165250000001
7179,213310102,"오륙도초중학교","일반",129.115730000000010,35.104170000000003
7180,213320102,"오륙도SK뷰정문","일반",129.119077800000010,35.101177679999999
7181,213310101,"오륙도SK뷰정문","일반",129.119095800000000,35.101426050000001
7182,213310201,"오륙도스카이워크","일반",129.122129900000000,35.101264909999998
7183,213330101,"오륙도스카이워크","일반",129.122403999999990,35.101474349999997
7184,179790301,"한양아파트","일반",129.071312000000010,35.143357399999999
7185,179910101,"문현초등학교","일반",129.072395000000000,35.145495500000003
7186,179920101,"문현현대APT","일반",129.076614000000010,35.144216299999997
7187,181640101,"연포초등학교","일반",129.081464700000000,35.138420629999999
7188,180210201,"남구청후문","일반",129.083704799999990,35.135896170000002
7189,180190301,"남구청후문","일반",129.083863299999990,35.135800130000000
7190,180550101,"시립박물관.부산문화회관","일반",129.092961199999990,35.128943520000000
7191,180540301,"시립박물관.부산문화회관","일반",129.093063000000000,35.129154139999997
7192,214180101,"신선대CNG충전소","일반",129.095982999999990,35.113693009999999
7193,180900201,"용당동","일반",129.094878599999990,35.115655519999997
7194,180150101,"용당동","일반",129.095220500000010,35.115713620000001
7195,180200301,"남구청","일반",129.085314299999990,35.135670540000000
7198,214640201,"백운포체육공원","일반",129.111496300000000,35.102048619999998
7199,214650101,"백운포체육공원","일반",129.111621799999990,35.102402349999998
7200,214640101,"남구국민체육센터","일반",129.107875900000010,35.103446810000001
7201,181360201,"감만동","일반",129.081183700000000,35.115539050000002
7202,180370301,"남부면허시험장","일반",129.105939799999990,35.130239019999998
7203,180900203,"신선대부두입구","일반",129.095471000000000,35.113809920000001
7204,180150301,"현대오일뱅크","일반",129.087918900000010,35.110533910000001
7205,181370201,"현대오일뱅크","일반",129.088022499999990,35.110297830000000
7206,180140401,"현대아파트","일반",129.082882000000010,35.111269440000001
7207,181350201,"현대아파트","일반",129.082423900000010,35.111367430000001
7208,181350401,"동항초등학교","일반",129.081743800000000,35.114596270000000
7209,215200201,"동항초등학교","일반",129.081452399999990,35.114565229999997
7210,180010101,"우암뉴서울아파트","일반",129.079356700000010,35.125058330000002
7211,212620101,"성지고등학교","일반",129.081314700000010,35.127057960000002
7212,212620102,"동림맨션","일반",129.085196700000010,35.128455000000002
7213,212620103,"부산공고","일반",129.088548500000000,35.129774670000003
7215,180380201,"평화공원","일반",129.101090400000000,35.127638980000000
7216,180900103,"동명대학교후문","일반",129.097685600000010,35.119661880000002
7217,179900202,"현대주유소","일반",129.076018299999990,35.143517129999999
7218,179900201,"문현삼거리","일반",129.072749800000000,35.141604070000000
7225,502510000,"유엔조각공원","일반",129.098601100000000,35.130015770000000
7226,502500000,"유엔조각공원","일반",129.097838700000010,35.130227230000003
7227,503810000,"남구실내빙상장","일반",129.108862399999990,35.102668020000003
7228,503820000,"남구실내빙상장","일반",129.108711500000000,35.102553499999999
7231,179850101,"대연고개","일반",129.080423300000010,35.134058330000002
8001,181710101,"금곡주공1단지","일반",129.018711700000010,35.267208330000003
8002,182710301,"금곡주공1단지","일반",129.019671700000000,35.266976669999998
8003,182710201,"금곡주공3단지","일반",129.020437100000010,35.265232560000001
8004,182720101,"금곡주공3단지","일반",129.020722500000010,35.265169569999998
8005,181760301,"금곡화목아파트","일반",129.018948300000010,35.263148330000000
8006,181700101,"금곡화목아파트","일반",129.019253300000000,35.263391669999997
8007,181690301,"유림아파트","일반",129.016899999999990,35.262033330000001
8008,181740201,"유림아파트","일반",129.017173300000000,35.261968330000002
8009,182660201,"구포정비","일반",129.000958000000000,35.209313600000002
8011,181740301,"금곡중학교","일반",129.016255000000000,35.260306669999999
8012,182700101,"금곡중학교","일반",129.016413300000010,35.260466670000000
8013,183140201,"구포시장","일반",129.003201999999990,35.209569000000002
8014,182700301,"금곡종합사회복지관","일반",129.014928300000010,35.258563330000001
8015,182670102,"금곡종합사회복지관","일반",129.015122400000000,35.258557099999997
8016,182700302,"금곡주공7단지","일반",129.013941700000000,35.256848329999997
8017,182670101,"금곡주공7단지","일반",129.014125000000010,35.256976670000000
8018,183280101,"구포3동주민센터","일반",129.008684200000000,35.195048640000003
8019,183280201,"구포3동주민센터","일반",129.008652700000000,35.195170859999998
8020,182670201,"금곡주공9단지","일반",129.013733300000010,35.254916670000000
8021,182680302,"금곡주공9단지","일반",129.013881700000010,35.255049999999997
8022,182670202,"금곡주공4단지","일반",129.013883300000000,35.253226669999997
8023,182680301,"금곡주공4단지","일반",129.013946699999990,35.253513329999997
8024,181820101,"수정역","일반",129.009103299999990,35.222851669999997
8025,183030201,"수정역","일반",129.008778299999990,35.222664999999999
8026,182680201,"금곡주공5단지","일반",129.013540000000010,35.251584999999999
8027,182680303,"금곡주공4단지후문","일반",129.014211700000000,35.251964999999998
8028,181870301,"금곡동주민센터","일반",129.012623300000000,35.250416670000000
8029,181860101,"금곡동주민센터","일반",129.012651699999990,35.250145000000003
8030,182320301,"율리역","일반",129.013011699999990,35.246918330000000
8031,181890301,"율리역","일반",129.012756700000010,35.246948330000002
8032,182320201,"벽산아파트","일반",129.012978299999990,35.244413330000000
8033,182760301,"벽산아파트","일반",129.013158299999990,35.244444999999999
8034,182760201,"북구보건소 인도네시아센터","일반",129.014051700000010,35.240551670000002
8035,182570303,"벽산아파트","일반",129.015431699999990,35.241911670000000
8036,182790102,"벽산아파트","일반",129.015533299999990,35.241871670000002
8037,182570302,"정화양로원","일반",129.019418300000010,35.243711670000003
8038,182790101,"정화양로원","일반",129.019575000000000,35.243726670000001
8039,182570301,"코오롱아파트","일반",129.021695200000010,35.244366769999999
8040,182790103,"코오롱아파트","일반",129.021691699999990,35.244173330000002
8041,182570202,"대천리중학교","일반",129.022079999999990,35.241578330000003
8042,183050204,"대천리중학교","일반",129.022203300000000,35.241570000000003
8043,182570201,"장원아파트","일반",129.020045000000010,35.241753330000002
8044,183050203,"장원아파트","일반",129.019839999999990,35.241605000000000
8045,183050201,"북구보건소","일반",129.015071699999990,35.239081669999997
8046,183050101,"북구보건소 인도네시아센터","일반",129.014271100000000,35.239167180000003
8047,183050301,"화신중학교(화명역)","일반",129.013746400000000,35.237145650000002
8048,181850101,"화신중학교(화명역)","일반",129.014160600000000,35.237376879999999
8049,181930101,"와석","일반",129.013735000000000,35.234068329999999
8050,181930202,"와석","일반",129.013399499999990,35.233568750000003
8051,181930201,"대림아파트","일반",129.013156700000000,35.231774999999999
8052,181810101,"대림아파트","일반",129.013331700000010,35.231611669999999
8053,183020101,"북부경찰서","일반",129.011975000000010,35.227834999999999
8054,181810201,"북부경찰서","일반",129.011821700000010,35.227861670000003
8055,182810301,"백양상가","일반",129.037493299999990,35.209000000000003
8056,183020301,"화명중학교","일반",129.009831700000010,35.225148330000003
8057,183030101,"화명중학교","일반",129.010051699999990,35.225225000000002
8059,212040103,"수정강변타운후문","일반",129.007440000000000,35.219835000000003
8060,181820301,"수정강변타운후문","일반",129.007658300000000,35.220350000000003
8061,182690201,"낙동고등학교","일반",129.009019999999990,35.216273330000000
8062,181820302,"구룡사","일반",129.004626699999990,35.215646669999998
8063,212040101,"구룡사","일반",129.004934999999990,35.215989999999998
8064,182330401,"덕천교차로","일반",129.004718300000010,35.212073330000003
8065,212040301,"덕천교차로","일반",129.004521700000000,35.211988329999997
8066,183140101,"구포시장종점","일반",129.002970000000000,35.210479999999997
8067,183510201,"구포시장","일반",129.003118800000010,35.209684889999998
8069,182660301,"구포역","일반",128.996725000000000,35.206630300000000
8070,182210301,"구포역","일반",128.996234600000010,35.206157830000002
8071,182210101,"구포역","일반",128.997109599999990,35.206620530000002
8072,182180101,"구포역","일반",128.995830399999990,35.205135779999999
8073,182630102,"구포삼거리","일반",128.992750900000000,35.201654959999999
8075,182630101,"구포삼거리","일반",128.992225999999990,35.201108640000001
8076,182970301,"구포삼거리","일반",128.990948000000000,35.200060999999998
8079,182970201,"북구청","일반",128.990850700000010,35.198298680000001
